indow._cianConfig['frontend-serp'] = (window._cianConfig['frontend-serp'] || []).concat([{"key":"projectName","value":"frontend-serp","priority":1000,"filter":{}},{"key":"mcsRunEnv","value":"PROD","priority":1000,"filter":{}},{"key":"mcsRunEnvType","value":"prod","priority":1000,"filter":{}},{"key":"version","value":"[frontend-serp][CD-204807][eadd1438]","priority":1000,"filter":{"request-id":"aa7a8196256ca"}},{"key":"version.commit","value":"eadd1438","priority":1000,"filter":{"request-id":"aa7a8196256ca"}},{"key":"logger.browser.baseUrl","value":"https:\u002F\u002Fwww.cian.ru\u002F","priority":51,"filter":{}},{"key":"logger.browser.pathApi","value":"\u002Fajax\u002Flog-error\u002F","priority":5,"filter":{}},{"key":"logger.browser.errorFilter","value":["Failed get-infinite-search-result-desktop","Couldn't open socket connection, code: 1006","Недопустимый знак"],"priority":0,"filter":{}},{"key":"pathApi","value":"\u002Fsnyat-dom\u002F","priority":0,"filter":{"request-id":"aa7a8196256ca"}},{"key":"web.manifest.assetsBaseUrl","value":"\u002F\u002Fstatic.cdn-cian.ru\u002Ffrontend\u002Ffrontend-serp\u002F","priority":0,"filter":{}},{"key":"web.mcsRunEnv","value":"PROD","priority":0,"filter":{}},{"key":"web.isWebView","value":false,"priority":0,"filter":{}},{"key":"web.platform","value":null,"priority":0,"filter":{}},{"key":"web.deviceType","value":"desktop","priority":0,"filter":{}},{"key":"web.browser.vitals.enabled","value":true,"priority":0,"filter":{}},{"key":"web.browser.vitals.transport","value":"sopr","priority":0,"filter":{}},{"key":"web.browser.vitals.pathApi","value":"\u002Fperformance-data\u002F","priority":1,"filter":{}},{"key":"web.browser.vitals.microserviceName","value":"sopr-api","priority":0,"filter":{}},{"key":"sopr-api.browserUrl","value":"https:\u002F\u002Fsopr-api.cian.ru\u002F","priority":0,"filter":{}},{"key":"COMM_MAGIC_ACCOUNT_ID","value":"8yrRI_QNvcxAPSrgg7mYM8nnG9WxGhMR","priority":0,"filter":{}},{"key":"Countryside.OffersBuilderBadge.Enabled","value":true,"priority":10,"filter":{}},{"key":"Moderation.CustomSanction.NewModerationInfo.Enabled","value":true,"priority":0,"filter":{}},{"key":"addForm.UtilitiesTerms.Enabled","value":true,"priority":10,"filter":{}},{"key":"addformConfig.excludeUtilitiesTermsRegions","value":[4959,4606,4588,2],"priority":0,"filter":{}},{"key":"addformConfig.includeUtilitiesTermsRegions","value":[1,4593],"priority":100,"filter":{}},{"key":"addformConfig.useIncludeUtilitiesTermsRegions","value":true,"priority":10,"filter":{}},{"key":"applicationServerKey","value":"BI9OUsSDFiM7CXneYcSpxJEEzfqLO_dsW4a8hhx9HjYc9z1PbtNBMdiwAJMhsKVVVLByKeUryOcwflioISSqx9k","priority":0,"filter":{}},{"key":"audience.YandexApiKey","value":"7a99de42-ac61-446d-9b37-2f210ea2231f","priority":5,"filter":{}},{"key":"audience.YandexSuggestApiKey","value":"7a8defd8-9fea-4454-a450-6e9d1083ead0","priority":0,"filter":{}},{"key":"browserApiBaseUrl","value":"https:\u002F\u002Fcian.ru\u002F","priority":0,"filter":{}},{"key":"chats.udApiBrowserUrl","value":"https:\u002F\u002Fud-api.cian.ru\u002Fchats\u002F","priority":10,"filter":{}},{"key":"collectionsCdn.baseUrl","value":"\u002F\u002Fstatic.cdn-cian.ru\u002Ffrontend\u002Fcollections-assets\u002F","priority":0,"filter":{}},{"key":"demand.udApiBrowserUrl","value":"https:\u002F\u002Fud-api.cian.ru\u002Fdemand\u002F","priority":0,"filter":{}},{"key":"frontend-serp.newbuildingEntryBannerInfo","value":{"mixed":{"title":"Новая квартира в современном доме","description":"Новостройки с выгодными ставками по ипотеке"},"resale":{"title":"Похожие квартиры в новостройках рядом","description":"Новые жилые комплексы с выгодными ставками по ипотеке"},"mixed_promo":{"title":"Возьмите выгодную ипотеку","description":"Льготная ипотека и специальные предложения","url":"\u002Fskidki\u002F"}},"priority":0,"filter":{}},{"key":"hiddenObjects.lkUrl","value":"https:\u002F\u002Fmy.cian.ru\u002Fhidden-offers\u002F","priority":0,"filter":{}},{"key":"isMlSearchForAll.Enabled","value":true,"priority":10,"filter":{}},{"key":"mlSearchRegions","value":[4560,4576,4600],"priority":0,"filter":{}},{"key":"moderation-complaints.browserUrl","value":"https:\u002F\u002Fapi.cian.ru\u002Fmoderation-complaints\u002F","priority":1,"filter":{}},{"key":"moderation-complaints.udApiBrowserUrl","value":"https:\u002F\u002Fud-api.cian.ru\u002Fmoderation-complaints\u002F","priority":11,"filter":{}},{"key":"monolith-cian-realty.browserUrl","value":"https:\u002F\u002Fcian.ru\u002F","priority":11,"filter":{}},{"key":"monolith-cian-realty.udApiBrowserUrl","value":"https:\u002F\u002Fud-api.cian.ru\u002F","priority":0,"filter":{}},{"key":"monolithPython.udApiBrowserUrl","value":"https:\u002F\u002Fud-api.cian.ru\u002F","priority":10,"filter":{}},{"key":"monolith-python.browserUrl","value":"https:\u002F\u002Fcian.ru\u002F","priority":10,"filter":{}},{"key":"monolith-python.udApiBrowserUrl","value":"https:\u002F\u002Fud-api.cian.ru\u002F","priority":0,"filter":{}},{"key":"monolith-csharp.browserUrl","value":"https:\u002F\u002Fcian.ru\u002F","priority":11,"filter":{}},{"key":"monolith-csharp.udApiBrowserUrl","value":"https:\u002F\u002Fud-api.cian.ru\u002F","priority":22,"filter":{}},{"key":"neighbors.availableOfferType","value":4194302,"priority":0,"filter":{}},{"key":"newbuildingChat.chatOpenDelay","value":2000,"priority":0,"filter":{}},{"key":"newbuildingConsultant.phone.enabledRegions","value":[1,4593,-1],"priority":0,"filter":{}},{"key":"newbuildingConsultant.phone.moscowAndRegion","value":"8 800 33 30 343","priority":0,"filter":{}},{"key":"newbuildingConsultant.telegramLink","value":"http:\u002F\u002Ft.me\u002Fcian_novostroyki_bot","priority":20,"filter":{}},{"key":"newbuildingConsultant.whatsappLink","value":"","priority":0,"filter":{}},{"key":"newbuildingConsultant.landingLink","value":"\u002Fpodobrat-kvartiru-v-novostrojke\u002F","priority":0,"filter":{}},{"key":"push.browserUrl","value":"https:\u002F\u002Fcian.ru\u002F","priority":5,"filter":{}},{"key":"push.enabled","value":true,"priority":0,"filter":{}},{"key":"redirectToOldFilters","value":"disabled","priority":0,"filter":{}},{"key":"searchOffers.browserUrl","value":"https:\u002F\u002Fapi.cian.ru\u002Fsearch-offers\u002F","priority":1,"filter":{}},{"key":"serp.filtersRedesignExperimentFinished","value":true,"priority":10,"filter":{}},{"key":"serp.isAdditionalTop3Enabled","value":true,"priority":0,"filter":{}},{"key":"serp.promo.collections.enabled","value":true,"priority":10,"filter":{}},{"key":"soprApi.browserUrl","value":"https:\u002F\u002Fsopr-api.cian.ru\u002F","priority":0,"filter":{}},{"key":"soprExperiments.browserUrl","value":"https:\u002F\u002Fapi.cian.ru\u002Fsopr-experiments\u002F","priority":1,"filter":{}},{"key":"soprExperimentsForTeaserUrl","value":"\u002F\u002Fsopr-api.cian.ru\u002F","priority":0,"filter":{}},{"key":"userInteractiveTime.debug.enabled","value":false,"priority":0,"filter":{}},{"key":"userInteractiveTime.enabled","value":true,"priority":10,"filter":{}},{"key":"newbuilding-booking.Enabled","value":false,"priority":0,"filter":{}},{"key":"userInteractiveTime.inactiveTime","value":20000,"priority":10,"filter":{}},{"key":"userInteractiveTime.schedulerInterval","value":30000,"priority":10,"filter":{}},{"key":"validateStep","value":true,"priority":0,"filter":{}},{"key":"webPushNotifications.browserUrl","value":"https:\u002F\u002Fapi.cian.ru\u002Fnotification-center\u002Fv1\u002Fweb-push\u002F","priority":0,"filter":{}},{"key":"webim.accountName","value":"cianru008","priority":0,"filter":{}},{"key":"requestFormRealtorFrontend.pagePath","value":"\u002Fapplication-form\u002F","priority":0,"filter":{}},{"key":"showVillagePromotions","value":true,"priority":0,"filter":{}},{"key":"showCountryBuildersBanner","value":true,"priority":0,"filter":{}},{"key":"new_highlighting","value":true,"priority":10,"filter":{}},{"key":"FrontendSerp.NewbuildingsGenplanInSerp.Enabled","value":true,"priority":0,"filter":{}},{"key":"builders.YandexApiKey","value":"b1c99cc7-4b96-413f-9842-10197c687348","priority":6,"filter":{}},{"key":"mortgage.isSerpBannerEnabled","value":true,"priority":0,"filter":{}},{"key":"undergroundMapShortcuts","value":{"1":[{"text":"Все станции внутри кольца","label":"inside-circle","ids":[130,119,148,98,145,125,124,58,64,47,18,121,132,84,56,96,68,8,115,149,54,4,77,129,105,20]},{"text":"Все станции кольцевой","label":"circle","ids":[71,114,85,15,80,86,38,61,50,159,12,103,78,150,123,46,66]}]},"priority":0,"filter":{}},{"key":"undergroundMapDataV2","value":{"1":"https:\u002F\u002Fstatic.cdn-cian.ru\u002Ffrontend\u002Fcollections-assets\u002Fmetro\u002Fv13.0.0\u002F1.json"},"priority":0,"filter":{}},{"key":"frontend-serp.DealSaleBanner.Enabled","value":true,"priority":10,"filter":{}},{"key":"deal-sale-promo-frontend.baseUrl","value":"https:\u002F\u002Fwww.cian.ru\u002Fregistraciya-prava-sobstvennosti-na-nedvizhimost\u002F","priority":0,"filter":{}},{"key":"sellingTypes.agentLists","value":{"pledgeRealty":"Залоговая недвижимость","tradeRealty":"Аукцион","electronTradeSite":"Электронные торги","encumbranceRealty":"От банка, с обременением","commEsales":"Электронные торги в коммерции"},"priority":0,"filter":{}},{"key":"Countryside.VillageMortgage.Enabled","value":false,"priority":0,"filter":{}},{"key":"newbuildingPromoBuilderOffers.Enabled","value":true,"priority":10,"filter":{}},{"key":"priceEstimator.browserUrl","value":"https:\u002F\u002Fapi.cian.ru\u002Fprice-estimator\u002F","priority":10,"filter":{}},{"key":"Countryside.SearchWithNeighborsByDefaultOff.Enabled","value":true,"priority":10,"filter":{}},{"key":"dailyrent.onlineBookingFilterDesktop.Enabled","value":true,"priority":10,"filter":{}},{"key":"frontend_search_flat_share_enabled.Enabled","value":true,"priority":10,"filter":{}},{"key":"mortgage-broker-application-frontend.promoUrl","value":"https:\u002F\u002Fwww.cian.ru\u002Fipoteka-partner\u002F","priority":10,"filter":{}},{"key":"e2e.SerpMortgageBrokerBanner.Enabled","value":true,"priority":10,"filter":{}},{"key":"dailyrent.partners_favorites.Enabled","value":true,"priority":10,"filter":{}},{"key":"Audience.ElectronicTrading.Enabled","value":true,"priority":10,"filter":{}},{"key":"electronicTrading.legalDocsUrl","value":"https:\u002F\u002Fsupport.cian.ru\u002Fru\u002Fknowledge_base\u002Fart\u002F195\u002Fcat\u002F66\u002F","priority":1,"filter":{}},{"key":"external_tour_enabled.Enabled","value":true,"priority":10,"filter":{}},{"key":"Dailyrent.CianReviewsFrontend.Enabled","value":true,"priority":10,"filter":{}},{"key":"moderation.QualityLevelTooltip","value":"Документы проверены,Вежливо общается с клиентами,Всегда отвечает на звонки и сообщения,Соблюдает правила Циан","priority":0,"filter":{}},{"key":"NewbuildingNewDesignTgbOnListing.Enabled","value":true,"priority":10,"filter":{}},{"key":"Newbuilding.TestCtrParallaxInTgbFooter.Enabled","value":true,"priority":10,"filter":{}},{"key":"Dailyrent.HotelsSearchFrontend.Enabled","value":true,"priority":10,"filter":{}},{"key":"Yandex.Metrika.CounterId","value":34229100,"priority":0,"filter":{}},{"key":"Dailyrent.HotelsStarRatingFilter.Enabled","value":false,"priority":0,"filter":{}},{"key":"audience-activation.rentRaffle2024Banner.url","value":"https:\u002F\u002Fpromo.cian.ru\u002Fgifts\u002Frent_moscow","priority":0,"filter":{}},{"key":"audience-activation.rentRaffle2024Banner.Novosibirsk.url","value":"https:\u002F\u002Fpromo.cian.ru\u002Fgifts\u002Frent_novosibirsk","priority":0,"filter":{}},{"key":"Dailyrent.FakeDailyrentOnlineBooking.Enabled","value":false,"priority":0,"filter":{}},{"key":"subdomain","value":"spb","priority":10,"filter":{}},{"key":"apiBaseUrl","value":"https:\u002F\u002Fcian.ru\u002F","priority":10,"filter":{}},{"key":"countrysideSearch.baseUrl","value":null,"priority":10,"filter":{}},{"key":"initialState","value":{"maxAuctionService":"top3","currentSubdomain":"spb","currentPath":"\u002Fsnyat-dom\u002F","abUseExperiments":[{"experimentName":"aud_desktop_aud2904_split_30_listing_aa_expf","groupName":"A"},{"experimentName":"aud_desktop_aud2904_split_50_listing_aa_expf","groupName":"B"},{"experimentName":"aud_desktop_cd178510_ranking_v3","groupName":"A"},{"experimentName":"b2b_3d_tours_web","groupName":"A"},{"experimentName":"newbuilding-triggering-message","groupName":null},{"experimentName":"newbuilding_chat_common_filter","groupName":null},{"experimentName":"newbuilding_consultant","groupName":null},{"experimentName":"newbuilding_consultant_help_in_search","groupName":null},{"experimentName":"newbuilding_new_design_tgb_on_listing","groupName":null},{"experimentName":"newbuiliding_test_for_expf_desktop_50_50","groupName":"enabled"},{"experimentName":"newbuiliding_test_for_expf_desktop_70_30","groupName":"enabled"},{"experimentName":"renter_form_experiment","groupName":"B"}],"filters":{"jsonQuery":{"_type":"suburbanrent","engine_version":{"type":"term","value":2},"region":{"type":"terms","value":[2]},"for_day":{"type":"term","value":"!1"},"object_type":{"type":"terms","value":[1]}},"nextJsonQuery":{"_type":"suburbanrent","engine_version":{"type":"term","value":2},"region":{"type":"terms","value":[2]},"for_day":{"type":"term","value":"!1"},"object_type":{"type":"terms","value":[1]}},"tags":[],"tagsData":{"newbuildings":{},"newbuildingHouses":{},"developers":{},"locations":{},"districts":{},"streets":{},"houses":{},"undergrounds":{},"directions":[],"railways":{},"regionalDistricts":{}},"tagsOptions":{"isFitInOneLineEnabled":true},"jsonQueryCountRefresing":false,"regions":[{"id":1,"fullName":"Москва","displayName":"Москва","name":"Москва","namePrepositional":"Москве","hasMetro":true,"hasHighway":false,"hasDistricts":true,"hasRegionalDistricts":false,"parentId":null,"mainTownId":null,"lat":55.7557,"lng":37.6213,"boundedBy":{"lowerCorner":{"lat":55.142175,"lng":36.803101},"upperCorner":{"lat":56.021224,"lng":37.967428}}},{"id":2,"fullName":"Санкт-Петербург","displayName":"Санкт-Петербург","name":"Санкт-Петербург","namePrepositional":"Санкт-Петербурге","hasMetro":true,"hasHighway":false,"hasDistricts":true,"hasRegionalDistricts":false,"parentId":null,"mainTownId":null,"lat":59.9385,"lng":30.3058,"boundedBy":{"lowerCorner":{"lat":59.633783,"lng":29.42981},"upperCorner":{"lat":60.244837,"lng":30.759691}}},{"id":4553,"fullName":"Республика Адыгея","displayName":"Адыгея","name":"Адыгея","namePrepositional":"Адыгее","hasMetro":false,"hasHighway":false,"hasDistricts":false,"hasRegionalDistricts":false,"parentId":null,"mainTownId":4855,"lat":44.609139,"lng":40.113209,"boundedBy":{"lowerCorner":{"lat":43.760146,"lng":38.684018},"upperCorner":{"lat":45.217113,"lng":40.777647}}},{"id":4554,"fullName":"Республика Алтай","displayName":"Алтай (Республика)","name":"Алтай","namePrepositional":"Алтае","hasMetro":false,"hasHighway":false,"hasDistricts":false,"hasRegionalDistricts":false,"parentId":null,"mainTownId":4719,"lat":51.958118,"lng":85.971291,"boundedBy":{"lowerCorner":{"lat":49.071318,"lng":83.932803},"upperCorner":{"lat":52.660268,"lng":89.86565}}},{"id":4555,"fullName":"Алтайский край","displayName":"Алтайский край","name":"Алтайский","namePrepositional":"Алтайском","hasMetro":false,"hasHighway":false,"hasDistricts":false,"hasRegionalDistricts":false,"parentId":null,"mainTownId":4668,"lat":53.356338,"lng":83.76165,"boundedBy":{"lowerCorner":{"lat":50.639877,"lng":77.888953},"upperCorner":{"lat":54.45311,"lng":87.168651}}},{"id":4556,"fullName":"Амурская область","displayName":"Амурская область","name":"Амурская","namePrepositional":"Амурской","hasMetro":false,"hasHighway":false,"hasDistricts":false,"hasRegionalDistricts":false,"parentId":null,"mainTownId":4683,"lat":50.27494,"lng":127.534141,"boundedBy":{"lowerCorner":{"lat":48.853458,"lng":119.655391},"upperCorner":{"lat":57.060508,"lng":134.920913}}},{"id":4557,"fullName":"Архангельская область","displayName":"Архангельская область","name":"Архангельская","namePrepositional":"Архангельской","hasMetro":false,"hasHighway":false,"hasDistricts":false,"hasRegionalDistricts":false,"parentId":null,"mainTownId":4658,"lat":64.536926,"lng":40.565571,"boundedBy":{"lowerCorner":{"lat":60.635816,"lng":35.269598},"upperCorner":{"lat":82.058623,"lng":69.957225}}},{"id":4558,"fullName":"Астраханская область","displayName":"Астраханская область","name":"Астраханская","namePrepositional":"Астраханской","hasMetro":false,"hasHighway":false,"hasDistricts":false,"hasRegionalDistricts":false,"parentId":null,"mainTownId":4660,"lat":46.354889,"lng":48.052719,"boundedBy":{"lowerCorner":{"lat":45.262264,"lng":44.960978},"upperCorner":{"lat":48.863566,"lng":49.886117}}},{"id":4560,"fullName":"Республика Башкортостан","displayName":"Башкортостан","name":"Башкортостан","namePrepositional":"Башкортостане","hasMetro":false,"hasHighway":false,"hasDistricts":false,"hasRegionalDistricts":true,"parentId":null,"mainTownId":176245,"lat":54.7355,"lng":55.991982,"boundedBy":{"lowerCorner":{"lat":51.569554,"lng":53.157542},"upperCorner":{"lat":56.534644,"lng":60.001809}}},{"id":4561,"fullName":"Белгородская область","displayName":"Белгородская область","name":"Белгородская","namePrepositional":"Белгородской","hasMetro":false,"hasHighway":false,"hasDistricts":false,"hasRegionalDistricts":false,"parentId":null,"mainTownId":4671,"lat":50.596611,"lng":36.609211,"boundedBy":{"lowerCorner":{"lat":49.796014,"lng":35.325686},"upperCorner":{"lat":51.430287,"lng":39.280769}}},{"id":4562,"fullName":"Брянская область","displayName":"Брянская область","name":"Брянская","namePrepositional":"Брянской","hasMetro":false,"hasHighway":false,"hasDistricts":false,"hasRegionalDistricts":false,"parentId":null,"mainTownId":4691,"lat":53.310661,"lng":34.300369,"boundedBy":{"lowerCorner":{"lat":51.843075,"lng":31.24091},"upperCorner":{"lat":54.034031,"lng":35.325127}}},{"id":4563,"fullName":"Республика Бурятия","displayName":"Бурятия","name":"Бурятия","namePrepositional":"Бурятской","hasMetro":false,"hasHighway":false,"hasDistricts":false,"hasRegionalDistricts":false,"parentId":null,"mainTownId":5026,"lat":51.840839,"lng":107.608093,"boundedBy":{"lowerCorner":{"lat":49.9599,"lng":98.63053},"upperCorner":{"lat":57.249783,"lng":116.921375}}},{"id":4564,"fullName":"Владимирская область","displayName":"Владимирская область","name":"Владимирская","namePrepositional":"Владимирской","hasMetro":false,"hasHighway":false,"hasDistricts":false,"hasRegionalDistricts":false,"parentId":null,"mainTownId":4703,"lat":56.127701,"lng":40.407559,"boundedBy":{"lowerCorner":{"lat":55.10142,"lng":38.268103},"upperCorner":{"lat":56.812682,"lng":42.976134}}},{"id":4565,"fullName":"Волгоградская область","displayName":"Волгоградская область","name":"Волгоградская","namePrepositional":"Волгоградской","hasMetro":false,"hasHighway":false,"hasDistricts":false,"hasRegionalDistricts":false,"parentId":null,"mainTownId":4704,"lat":48.718079,"lng":44.504639,"boundedBy":{"lowerCorner":{"lat":47.443733,"lng":41.168105},"upperCorner":{"lat":51.247608,"lng":47.43145}}},{"id":4566,"fullName":"Вологодская область","displayName":"Вологодская область","name":"Вологодская","namePrepositional":"Вологодской","hasMetro":false,"hasHighway":false,"hasDistricts":false,"hasRegionalDistricts":false,"parentId":null,"mainTownId":4708,"lat":59.215241,"lng":39.876709,"boundedBy":{"lowerCorner":{"lat":58.477315,"lng":34.719093},"upperCorner":{"lat":61.614232,"lng":47.152878}}},{"id":4567,"fullName":"Воронежская область","displayName":"Воронежская область","name":"Воронежская","namePrepositional":"Воронежской","hasMetro":false,"hasHighway":false,"hasDistricts":false,"hasRegionalDistricts":false,"parentId":null,"mainTownId":4713,"lat":51.660019,"lng":39.19741,"boundedBy":{"lowerCorner":{"lat":49.55795,"lng":38.137752},"upperCorner":{"lat":52.10312,"lng":42.947337}}},{"id":4568,"fullName":"Республика Дагестан","displayName":"Дагестан","name":"Дагестан","namePrepositional":"Дагестане","hasMetro":false,"hasHighway":false,"hasDistricts":false,"hasRegionalDistricts":false,"parentId":null,"mainTownId":4857,"lat":42.972759,"lng":47.493599,"boundedBy":{"lowerCorner":{"lat":41.185871,"lng":45.103422},"upperCorner":{"lat":44.991721,"lng":48.814096}}},{"id":4569,"fullName":"Еврейская автономная область","displayName":"Еврейская АО","name":"Еврейская","namePrepositional":"Еврейской","hasMetro":false,"hasHighway":false,"hasDistricts":false,"hasRegionalDistricts":false,"parentId":null,"mainTownId":4682,"lat":48.800671,"lng":132.899139,"boundedBy":{"lowerCorner":{"lat":47.656518,"lng":130.520273},"upperCorner":{"lat":49.494104,"lng":134.995785}}},{"id":4570,"fullName":"Ивановская область","displayName":"Ивановская область","name":"Ивановская","namePrepositional":"Ивановской","hasMetro":false,"hasHighway":false,"hasDistricts":false,"hasRegionalDistricts":false,"parentId":null,"mainTownId":4767,"lat":56.992409,"lng":40.967789,"boundedBy":{"lowerCorner":{"lat":56.352311,"lng":39.374037},"upperCorner":{"lat":57.740504,"lng":43.324612}}},{"id":4571,"fullName":"Республика Ингушетия","displayName":"Ингушетия","name":"Ингушетия","namePrepositional":"Ингушской","hasMetro":false,"hasHighway":false,"hasDistricts":false,"hasRegionalDistricts":false,"parentId":null,"mainTownId":4853,"lat":43.222309,"lng":44.770828,"boundedBy":{"lowerCorner":{"lat":42.61473,"lng":44.478436},"upperCorner":{"lat":43.614089,"lng":45.247182}}},{"id":4572,"fullName":"Иркутская область","displayName":"Иркутская область","name":"Иркутская","namePrepositional":"Иркутской","hasMetro":false,"hasHighway":false,"hasDistricts":false,"hasRegionalDistricts":false,"parentId":null,"mainTownId":4774,"lat":52.275261,"lng":104.30864,"boundedBy":{"lowerCorner":{"lat":51.129489,"lng":95.646271},"upperCorner":{"lat":64.321545,"lng":119.139315}}},{"id":4573,"fullName":"Кабардино-Балкарская Республика","displayName":"Кабардино-Балкария","name":"Кабардино-Балкарская","namePrepositional":"Кабардино-Балкарской","hasMetro":false,"hasHighway":false,"hasDistricts":false,"hasRegionalDistricts":false,"parentId":null,"mainTownId":4875,"lat":43.48695,"lng":43.602989,"boundedBy":{"lowerCorner":{"lat":42.889536,"lng":42.397268},"upperCorner":{"lat":44.020314,"lng":44.475368}}},{"id":4574,"fullName":"Калининградская область","displayName":"Калининградская область","name":"Калининградская","namePrepositional":"Калининградской","hasMetro":false,"hasHighway":false,"hasDistricts":false,"hasRegionalDistricts":false,"parentId":null,"mainTownId":4778,"lat":54.711788,"lng":20.5068,"boundedBy":{"lowerCorner":{"lat":54.318778,"lng":19.414152},"upperCorner":{"lat":55.384,"lng":22.886684}}},{"id":4575,"fullName":"Республика Калмыкия","displayName":"Калмыкия","name":"Калмыкия","namePrepositional":"Калмыцкой","hasMetro":false,"hasHighway":false,"hasDistricts":false,"hasRegionalDistricts":false,"parentId":null,"mainTownId":5065,"lat":46.312962,"lng":44.25346,"boundedBy":{"lowerCorner":{"lat":44.718891,"lng":41.634308},"upperCorner":{"lat":48.270856,"lng":47.826803}}},{"id":4576,"fullName":"Калужская область","displayName":"Калужская область","name":"Калужская","namePrepositional":"Калужской","hasMetro":false,"hasHighway":false,"hasDistricts":false,"hasRegionalDistricts":false,"parentId":null,"mainTownId":4780,"lat":54.514679,"lng":36.27142,"boundedBy":{"lowerCorner":{"lat":53.27699,"lng":33.441422},"upperCorner":{"lat":55.35128,"lng":37.27543}}},{"id":4577,"fullName":"Камчатский край","displayName":"Камчатский край","name":"Камчатский","namePrepositional":"Камчатском","hasMetro":false,"hasHighway":false,"hasDistricts":false,"hasRegionalDistricts":false,"parentId":null,"mainTownId":4931,"lat":53.061562,"lng":158.622482,"boundedBy":{"lowerCorner":{"lat":50.686734,"lng":155.215243},"upperCorner":{"lat":64.937469,"lng":174.518872}}},{"id":4578,"fullName":"Карачаево-Черкесская Республика","displayName":"Карачаево-Черкесия","name":"Карачаево-Черкесская","namePrepositional":"Карачаево-Черкесской","hasMetro":false,"hasHighway":false,"hasDistricts":false,"hasRegionalDistricts":false,"parentId":null,"mainTownId":5051,"lat":44.23085,"lng":42.06477,"boundedBy":{"lowerCorner":{"lat":43.187409,"lng":40.675481},"upperCorner":{"lat":44.497637,"lng":42.681373}}},{"id":4579,"fullName":"Республика Карелия","displayName":"Карелия","name":"Карелия","namePrepositional":"Карелии","hasMetro":false,"hasHighway":false,"hasDistricts":false,"hasRegionalDistricts":false,"parentId":null,"mainTownId":4930,"lat":61.7822,"lng":34.36208,"boundedBy":{"lowerCorner":{"lat":60.679569,"lng":29.305928},"upperCorner":{"lat":66.667324,"lng":37.946638}}},{"id":4580,"fullName":"Кемеровская область","displayName":"Кемеровская область","name":"Кемеровская","namePrepositional":"Кемеровской","hasMetro":false,"hasHighway":false,"hasDistricts":false,"hasRegionalDistricts":false,"parentId":null,"mainTownId":4795,"lat":55.371239,"lng":86.052437,"boundedBy":{"lowerCorner":{"lat":52.162704,"lng":84.44904},"upperCorner":{"lat":56.83442,"lng":89.402644}}},{"id":4581,"fullName":"Кировская область","displayName":"Кировская область","name":"Кировская","namePrepositional":"Кировской","hasMetro":false,"hasHighway":false,"hasDistricts":false,"hasRegionalDistricts":false,"parentId":null,"mainTownId":4800,"lat":58.596081,"lng":49.662659,"boundedBy":{"lowerCorner":{"lat":56.060762,"lng":46.263784},"upperCorner":{"lat":61.067393,"lng":53.931242}}},{"id":4582,"fullName":"Республика Коми","displayName":"Коми","name":"Коми","namePrepositional":"Коми","hasMetro":false,"hasHighway":false,"hasDistricts":false,"hasRegionalDistricts":false,"parentId":null,"mainTownId":5006,"lat":61.681862,"lng":50.812771,"boundedBy":{"lowerCorner":{"lat":59.198626,"lng":45.39935},"upperCorner":{"lat":68.422662,"lng":66.251686}}},{"id":4583,"fullName":"Костромская область","displayName":"Костромская область","name":"Костромская","namePrepositional":"Костромской","hasMetro":false,"hasHighway":false,"hasDistricts":false,"hasRegionalDistricts":false,"parentId":null,"mainTownId":175050,"lat":57.780739,"lng":40.936691,"boundedBy":{"lowerCorner":{"lat":57.272169,"lng":40.390103},"upperCorner":{"lat":59.623604,"lng":47.639515}}},{"id":4584,"fullName":"Краснодарский край","displayName":"Краснодарский край","name":"Краснодарский","namePrepositional":"Краснодарском","hasMetro":false,"hasHighway":false,"hasDistricts":false,"hasRegionalDistricts":true,"parentId":null,"mainTownId":4820,"lat":45.042149,"lng":38.98064,"boundedBy":{"lowerCorner":{"lat":43.224431,"lng":36.530486},"upperCorner":{"lat":47.003022,"lng":41.74398}}},{"id":4585,"fullName":"Красноярский край","displayName":"Красноярский край","name":"Красноярский","namePrepositional":"Красноярском","hasMetro":false,"hasHighway":false,"hasDistricts":false,"hasRegionalDistricts":false,"parentId":null,"mainTownId":4827,"lat":56.001251,"lng":92.88559,"boundedBy":{"lowerCorner":{"lat":51.772621,"lng":74.986851},"upperCorner":{"lat":81.474181,"lng":114.739629}}},{"id":4586,"fullName":"Курганская область","displayName":"Курганская область","name":"Курганская","namePrepositional":"Курганской","hasMetro":false,"hasHighway":false,"hasDistricts":false,"hasRegionalDistricts":false,"parentId":null,"mainTownId":4834,"lat":55.453689,"lng":65.342323,"boundedBy":{"lowerCorner":{"lat":54.18731,"lng":61.966185},"upperCorner":{"lat":56.842297,"lng":68.722664}}},{"id":4587,"fullName":"Курская область","displayName":"Курская область","name":"Курская","namePrepositional":"Курской","hasMetro":false,"hasHighway":false,"hasDistricts":false,"hasRegionalDistricts":false,"parentId":null,"mainTownId":4835,"lat":51.740261,"lng":36.184879,"boundedBy":{"lowerCorner":{"lat":50.901557,"lng":34.080766},"upperCorner":{"lat":52.44506,"lng":38.51927}}},{"id":4588,"fullName":"Ленинградская область","displayName":"Ленинградская область","name":"Ленинградская","namePrepositional":"Ленинградской","hasMetro":false,"hasHighway":true,"hasDistricts":false,"hasRegionalDistricts":true,"parentId":null,"mainTownId":2,"lat":59.9385,"lng":30.3058,"boundedBy":{"lowerCorner":{"lat":58.417336,"lng":26.440169},"upperCorner":{"lat":61.329293,"lng":35.701312}}},{"id":4589,"fullName":"Липецкая область","displayName":"Липецкая область","name":"Липецкая","namePrepositional":"Липецкой","hasMetro":false,"hasHighway":false,"hasDistricts":false,"hasRegionalDistricts":false,"parentId":null,"mainTownId":4847,"lat":52.605949,"lng":39.587681,"boundedBy":{"lowerCorner":{"lat":51.887062,"lng":37.721716},"upperCorner":{"lat":53.586654,"lng":40.764775}}},{"id":4590,"fullName":"Магаданская область","displayName":"Магаданская область","name":"Магаданская","namePrepositional":"Магаданской","hasMetro":false,"hasHighway":false,"hasDistricts":false,"hasRegionalDistricts":false,"parentId":null,"mainTownId":4852,"lat":59.55632,"lng":150.81308,"boundedBy":{"lowerCorner":{"lat":58.637529,"lng":144.728624},"upperCorner":{"lat":66.339139,"lng":163.495694}}},{"id":4591,"fullName":"Республика Марий Эл","displayName":"Марий Эл","name":"Марий Эл","namePrepositional":"Марий Эл","hasMetro":false,"hasHighway":false,"hasDistricts":false,"hasRegionalDistricts":false,"parentId":null,"mainTownId":4776,"lat":56.637501,"lng":47.891499,"boundedBy":{"lowerCorner":{"lat":55.829454,"lng":45.62374},"upperCorner":{"lat":57.342865,"lng":50.202985}}},{"id":4592,"fullName":"Республика Мордовия","displayName":"Мордовия","name":"Мордовия","namePrepositional":"Мордовии","hasMetro":false,"hasHighway":false,"hasDistricts":false,"hasRegionalDistricts":false,"parentId":null,"mainTownId":4967,"lat":54.181381,"lng":45.17569,"boundedBy":{"lowerCorner":{"lat":53.643167,"lng":42.164255},"upperCorner":{"lat":55.190268,"lng":46.729602}}},{"id":4593,"fullName":"Московская область","displayName":"Московская область","name":"Московская","namePrepositional":"Московской","hasMetro":false,"hasHighway":true,"hasDistricts":false,"hasRegionalDistricts":true,"parentId":null,"mainTownId":1,"lat":55.7557,"lng":37.6213,"boundedBy":{"lowerCorner":{"lat":54.255696,"lng":35.148496},"upperCorner":{"lat":56.958512,"lng":40.205688}}},{"id":4594,"fullName":"Мурманская область","displayName":"Мурманская область","name":"Мурманская","namePrepositional":"Мурманской","hasMetro":false,"hasHighway":false,"hasDistricts":false,"hasRegionalDistricts":false,"parentId":null,"mainTownId":4871,"lat":68.953178,"lng":33.107051,"boundedBy":{"lowerCorner":{"lat":65.691813,"lng":28.416117},"upperCorner":{"lat":70.152975,"lng":42.505704}}},{"id":4595,"fullName":"Ненецкий автономный округ","displayName":"Ненецкий АО","name":"Ненецкий","namePrepositional":"Ненецком","hasMetro":false,"hasHighway":false,"hasDistricts":false,"hasRegionalDistricts":false,"parentId":null,"mainTownId":4876,"lat":67.669144,"lng":53.082001,"boundedBy":{"lowerCorner":{"lat":65.820969,"lng":41.312596},"upperCorner":{"lat":70.724599,"lng":65.670532}}},{"id":4596,"fullName":"Нижегородская область","displayName":"Нижегородская область","name":"Нижегородская","namePrepositional":"Нижегородской","hasMetro":false,"hasHighway":false,"hasDistricts":false,"hasRegionalDistricts":false,"parentId":null,"mainTownId":4885,"lat":56.329917,"lng":44.009192,"boundedBy":{"lowerCorner":{"lat":54.462103,"lng":41.776477},"upperCorner":{"lat":58.091176,"lng":47.771788}}},{"id":4597,"fullName":"Новгородская область","displayName":"Новгородская область","name":"Новгородская","namePrepositional":"Новгородской","hasMetro":false,"hasHighway":false,"hasDistricts":false,"hasRegionalDistricts":false,"parentId":null,"mainTownId":4694,"lat":58.544971,"lng":31.269119,"boundedBy":{"lowerCorner":{"lat":56.909067,"lng":29.618726},"upperCorner":{"lat":59.432763,"lng":36.228919}}},{"id":4598,"fullName":"Новосибирская область","displayName":"Новосибирская область","name":"Новосибирская","namePrepositional":"Новосибирской","hasMetro":false,"hasHighway":false,"hasDistricts":false,"hasRegionalDistricts":true,"parentId":null,"mainTownId":4897,"lat":55.03923,"lng":82.927818,"boundedBy":{"lowerCorner":{"lat":53.29141,"lng":75.08801},"upperCorner":{"lat":57.235533,"lng":85.116172}}},{"id":4599,"fullName":"Омская область","displayName":"Омская область","name":"Омская","namePrepositional":"Омской","hasMetro":false,"hasHighway":false,"hasDistricts":false,"hasRegionalDistricts":true,"parentId":null,"mainTownId":4914,"lat":54.970902,"lng":73.393753,"boundedBy":{"lowerCorner":{"lat":53.435497,"lng":70.358304},"upperCorner":{"lat":58.576245,"lng":76.306639}}},{"id":4600,"fullName":"Оренбургская область","displayName":"Оренбургская область","name":"Оренбургская","namePrepositional":"Оренбургской","hasMetro":false,"hasHighway":false,"hasDistricts":false,"hasRegionalDistricts":false,"parentId":null,"mainTownId":4915,"lat":51.768242,"lng":55.10371,"boundedBy":{"lowerCorner":{"lat":50.494757,"lng":50.768163},"upperCorner":{"lat":54.365639,"lng":61.689558}}},{"id":4601,"fullName":"Орловская область","displayName":"Орловская область","name":"Орловская","namePrepositional":"Орловской","hasMetro":false,"hasHighway":false,"hasDistricts":false,"hasRegionalDistricts":false,"parentId":null,"mainTownId":175604,"lat":52.968453,"lng":36.069494,"boundedBy":{"lowerCorner":{"lat":51.934992,"lng":34.791971},"upperCorner":{"lat":53.652491,"lng":38.067214}}},{"id":4602,"fullName":"Пензенская область","displayName":"Пензенская область","name":"Пензенская","namePrepositional":"Пензенской","hasMetro":false,"hasHighway":false,"hasDistricts":false,"hasRegionalDistricts":false,"parentId":null,"mainTownId":4923,"lat":53.200931,"lng":45.010422,"boundedBy":{"lowerCorner":{"lat":52.291266,"lng":42.08174},"upperCorner":{"lat":54.03078,"lng":46.981365}}},{"id":4603,"fullName":"Пермский край","displayName":"Пермский край","name":"Пермский","namePrepositional":"Пермском","hasMetro":false,"hasHighway":false,"hasDistricts":false,"hasRegionalDistricts":false,"parentId":null,"mainTownId":4927,"lat":57.99717,"lng":56.235279,"boundedBy":{"lowerCorner":{"lat":56.103883,"lng":51.771541},"upperCorner":{"lat":61.663067,"lng":59.482731}}},{"id":4604,"fullName":"Приморский край","displayName":"Приморский край","name":"Приморский","namePrepositional":"Приморском","hasMetro":false,"hasHighway":false,"hasDistricts":false,"hasRegionalDistricts":false,"parentId":null,"mainTownId":4701,"lat":43.130692,"lng":131.923828,"boundedBy":{"lowerCorner":{"lat":42.170636,"lng":130.39465},"upperCorner":{"lat":48.464545,"lng":139.309393}}},{"id":4605,"fullName":"Псковская область","displayName":"Псковская область","name":"Псковская","namePrepositional":"Псковской","hasMetro":false,"hasHighway":false,"hasDistricts":false,"hasRegionalDistricts":false,"parentId":null,"mainTownId":4946,"lat":57.824372,"lng":28.33049,"boundedBy":{"lowerCorner":{"lat":55.588303,"lng":27.317455},"upperCorner":{"lat":59.021159,"lng":31.51786}}},{"id":4606,"fullName":"Ростовская область","displayName":"Ростовская область","name":"Ростовская","namePrepositional":"Ростовской","hasMetro":false,"hasHighway":false,"hasDistricts":false,"hasRegionalDistricts":true,"parentId":null,"mainTownId":4959,"lat":47.233189,"lng":39.715,"boundedBy":{"lowerCorner":{"lat":45.951688,"lng":38.220892},"upperCorner":{"lat":50.214477,"lng":44.324152}}},{"id":4607,"fullName":"Рязанская область","displayName":"Рязанская область","name":"Рязанская","namePrepositional":"Рязанской","hasMetro":false,"hasHighway":false,"hasDistricts":false,"hasRegionalDistricts":false,"parentId":null,"mainTownId":4963,"lat":54.62466,"lng":39.738571,"boundedBy":{"lowerCorner":{"lat":53.30907,"lng":38.665982},"upperCorner":{"lat":55.366494,"lng":42.692094}}},{"id":4608,"fullName":"Самарская область","displayName":"Самарская область","name":"Самарская","namePrepositional":"Самарской","hasMetro":false,"hasHighway":false,"hasDistricts":false,"hasRegionalDistricts":false,"parentId":null,"mainTownId":4966,"lat":53.20216,"lng":50.159618,"boundedBy":{"lowerCorner":{"lat":51.773037,"lng":47.930441},"upperCorner":{"lat":54.677162,"lng":52.568276}}},{"id":4609,"fullName":"Саратовская область","displayName":"Саратовская область","name":"Саратовская","namePrepositional":"Саратовской","hasMetro":false,"hasHighway":false,"hasDistricts":false,"hasRegionalDistricts":false,"parentId":null,"mainTownId":4969,"lat":51.533269,"lng":46.034549,"boundedBy":{"lowerCorner":{"lat":49.80121,"lng":42.503671},"upperCorner":{"lat":52.819371,"lng":50.83258}}},{"id":4610,"fullName":"Республика Саха (Якутия)","displayName":"Саха (Якутия)","name":"Саха (Якутия)","namePrepositional":"Саха (Якутия)","hasMetro":false,"hasHighway":false,"hasDistricts":false,"hasRegionalDistricts":false,"parentId":null,"mainTownId":5073,"lat":62.039261,"lng":129.746399,"boundedBy":{"lowerCorner":{"lat":55.487672,"lng":105.508341},"upperCorner":{"lat":77.309937,"lng":163.105983}}},{"id":4611,"fullName":"Сахалинская область","displayName":"Сахалинская область","name":"Сахалинская","namePrepositional":"Сахалинской","hasMetro":false,"hasHighway":false,"hasDistricts":false,"hasRegionalDistricts":false,"parentId":null,"mainTownId":5069,"lat":46.961262,"lng":142.73198,"boundedBy":{"lowerCorner":{"lat":43.177563,"lng":140.922056},"upperCorner":{"lat":54.625981,"lng":156.831768}}},{"id":4612,"fullName":"Свердловская область","displayName":"Свердловская область","name":"Свердловская","namePrepositional":"Свердловской","hasMetro":false,"hasHighway":false,"hasDistricts":false,"hasRegionalDistricts":true,"parentId":null,"mainTownId":4743,"lat":56.837814,"lng":60.596842,"boundedBy":{"lowerCorner":{"lat":56.053224,"lng":57.229384},"upperCorner":{"lat":61.946615,"lng":66.184857}}},{"id":4613,"fullName":"Республика Северная Осетия - Алания","displayName":"Северная Осетия-Алания","name":"Северная Осетия - Алания","namePrepositional":"Северной Осетии","hasMetro":false,"hasHighway":false,"hasDistricts":false,"hasRegionalDistricts":false,"parentId":null,"mainTownId":4702,"lat":43.031231,"lng":44.67577,"boundedBy":{"lowerCorner":{"lat":42.546937,"lng":43.398487},"upperCorner":{"lat":43.835116,"lng":44.960431}}},{"id":4614,"fullName":"Смоленская область","displayName":"Смоленская область","name":"Смоленская","namePrepositional":"Смоленской","hasMetro":false,"hasHighway":false,"hasDistricts":false,"hasRegionalDistricts":false,"parentId":null,"mainTownId":4987,"lat":54.781101,"lng":32.048889,"boundedBy":{"lowerCorner":{"lat":53.408691,"lng":30.75157},"upperCorner":{"lat":56.067054,"lng":35.395003}}},{"id":4615,"fullName":"Ставропольский край","displayName":"Ставропольский край","name":"Ставропольский","namePrepositional":"Ставропольском","hasMetro":false,"hasHighway":false,"hasDistricts":false,"hasRegionalDistricts":false,"parentId":null,"mainTownId":5001,"lat":45.039131,"lng":41.98214,"boundedBy":{"lowerCorner":{"lat":43.658578,"lng":40.846043},"upperCorner":{"lat":46.236517,"lng":45.715953}}},{"id":4617,"fullName":"Тамбовская область","displayName":"Тамбовская область","name":"Тамбовская","namePrepositional":"Тамбовской","hasMetro":false,"hasHighway":false,"hasDistricts":false,"hasRegionalDistricts":false,"parentId":null,"mainTownId":5011,"lat":52.7211,"lng":41.417351,"boundedBy":{"lowerCorner":{"lat":51.588084,"lng":39.915694},"upperCorner":{"lat":53.822577,"lng":43.248087}}},{"id":4618,"fullName":"Республика Татарстан","displayName":"Татарстан","name":"Татарстан","namePrepositional":"Татарстане","hasMetro":false,"hasHighway":false,"hasDistricts":false,"hasRegionalDistricts":true,"parentId":null,"mainTownId":4777,"lat":55.796538,"lng":49.1082,"boundedBy":{"lowerCorner":{"lat":53.974244,"lng":47.237019},"upperCorner":{"lat":56.678309,"lng":54.265697}}},{"id":4619,"fullName":"Тверская область","displayName":"Тверская область","name":"Тверская","namePrepositional":"Тверской","hasMetro":false,"hasHighway":false,"hasDistricts":false,"hasRegionalDistricts":false,"parentId":null,"mainTownId":176083,"lat":56.857929,"lng":35.923828,"boundedBy":{"lowerCorner":{"lat":55.632035,"lng":30.728387},"upperCorner":{"lat":58.863139,"lng":38.326858}}},{"id":4620,"fullName":"Томская область","displayName":"Томская область","name":"Томская","namePrepositional":"Томской","hasMetro":false,"hasHighway":false,"hasDistricts":false,"hasRegionalDistricts":false,"parentId":null,"mainTownId":5016,"lat":56.463989,"lng":84.962548,"boundedBy":{"lowerCorner":{"lat":55.66466,"lng":75.056665},"upperCorner":{"lat":61.035672,"lng":89.379033}}},{"id":4621,"fullName":"Тульская область","displayName":"Тульская область","name":"Тульская","namePrepositional":"Тульской","hasMetro":false,"hasHighway":false,"hasDistricts":false,"hasRegionalDistricts":false,"parentId":null,"mainTownId":5020,"lat":54.196678,"lng":37.617828,"boundedBy":{"lowerCorner":{"lat":52.946357,"lng":35.898555},"upperCorner":{"lat":54.851837,"lng":38.951545}}},{"id":4622,"fullName":"Республика Тыва","displayName":"Тыва","name":"Тыва","namePrepositional":"Тыве","hasMetro":false,"hasHighway":false,"hasDistricts":false,"hasRegionalDistricts":false,"parentId":null,"mainTownId":4837,"lat":51.721909,"lng":94.417397,"boundedBy":{"lowerCorner":{"lat":49.7445,"lng":88.791531},"upperCorner":{"lat":53.72893,"lng":99.273846}}},{"id":4623,"fullName":"Тюменская область","displayName":"Тюменская область","name":"Тюменская","namePrepositional":"Тюменской","hasMetro":false,"hasHighway":false,"hasDistricts":false,"hasRegionalDistricts":true,"parentId":null,"mainTownId":5024,"lat":57.154949,"lng":65.51564,"boundedBy":{"lowerCorner":{"lat":55.1471,"lng":64.827192},"upperCorner":{"lat":59.989559,"lng":75.199295}}},{"id":4624,"fullName":"Удмуртская Республика","displayName":"Удмуртия","name":"Удмуртская","namePrepositional":"Удмуртской","hasMetro":false,"hasHighway":false,"hasDistricts":false,"hasRegionalDistricts":false,"parentId":null,"mainTownId":4770,"lat":56.842609,"lng":53.224449,"boundedBy":{"lowerCorner":{"lat":55.850578,"lng":51.124165},"upperCorner":{"lat":58.545842,"lng":54.436131}}},{"id":4625,"fullName":"Ульяновская область","displayName":"Ульяновская область","name":"Ульяновская","namePrepositional":"Ульяновской","hasMetro":false,"hasHighway":false,"hasDistricts":false,"hasRegionalDistricts":false,"parentId":null,"mainTownId":5027,"lat":54.32148,"lng":48.38565,"boundedBy":{"lowerCorner":{"lat":52.532669,"lng":45.79672},"upperCorner":{"lat":54.891446,"lng":50.243401}}},{"id":4627,"fullName":"Хабаровский край","displayName":"Хабаровский край","name":"Хабаровский","namePrepositional":"Хабаровском","hasMetro":false,"hasHighway":false,"hasDistricts":false,"hasRegionalDistricts":false,"parentId":null,"mainTownId":5039,"lat":48.476719,"lng":135.09407,"boundedBy":{"lowerCorner":{"lat":46.634961,"lng":130.386742},"upperCorner":{"lat":62.531587,"lng":147.216789}}},{"id":4628,"fullName":"Республика Хакасия","displayName":"Хакасия","name":"Хакасия","namePrepositional":"Хакасии","hasMetro":false,"hasHighway":false,"hasDistricts":false,"hasRegionalDistricts":false,"parentId":null,"mainTownId":4638,"lat":53.729172,"lng":91.461189,"boundedBy":{"lowerCorner":{"lat":51.285126,"lng":87.882589},"upperCorner":{"lat":55.437878,"lng":91.924731}}},{"id":4629,"fullName":"Ханты-Мансийский автономный округ","displayName":"Ханты-Мансийский АО","name":"Ханты-Мансийский","namePrepositional":"Ханты-Мансийском","hasMetro":false,"hasHighway":false,"hasDistricts":false,"hasRegionalDistricts":false,"parentId":null,"mainTownId":5041,"lat":61.00079,"lng":69.006241,"boundedBy":{"lowerCorner":{"lat":58.579853,"lng":59.203794},"upperCorner":{"lat":65.717736,"lng":85.976673}}},{"id":4630,"fullName":"Челябинская область","displayName":"Челябинская область","name":"Челябинская","namePrepositional":"Челябинской","hasMetro":false,"hasHighway":false,"hasDistricts":false,"hasRegionalDistricts":true,"parentId":null,"mainTownId":5048,"lat":55.159889,"lng":61.40258,"boundedBy":{"lowerCorner":{"lat":51.990784,"lng":57.131288},"upperCorner":{"lat":56.365798,"lng":63.352015}}},{"id":4631,"fullName":"Чеченская Республика","displayName":"Чечня","name":"Чеченская","namePrepositional":"Чеченской","hasMetro":false,"hasHighway":false,"hasDistricts":false,"hasRegionalDistricts":false,"parentId":null,"mainTownId":4723,"lat":43.309841,"lng":45.670391,"boundedBy":{"lowerCorner":{"lat":42.478227,"lng":44.833205},"upperCorner":{"lat":44.008596,"lng":46.662041}}},{"id":4633,"fullName":"Чувашская Республика","displayName":"Чувашия","name":"Чувашская","namePrepositional":"Чувашской","hasMetro":false,"hasHighway":false,"hasDistricts":false,"hasRegionalDistricts":false,"parentId":null,"mainTownId":5047,"lat":56.137451,"lng":47.24403,"boundedBy":{"lowerCorner":{"lat":54.627395,"lng":45.911256},"upperCorner":{"lat":56.328518,"lng":48.420602}}},{"id":4634,"fullName":"Чукотский автономный округ","displayName":"Чукотский АО","name":"Чукотский","namePrepositional":"Чукотском","hasMetro":false,"hasHighway":false,"hasDistricts":false,"hasRegionalDistricts":false,"parentId":null,"mainTownId":4648,"lat":64.736656,"lng":177.477371,"boundedBy":{"lowerCorner":{"lat":61.607801,"lng":157.730566},"upperCorner":{"lat":70.32417,"lng":180}}},{"id":4635,"fullName":"Ямало-Ненецкий автономный округ","displayName":"Ямало-Ненецкий АО","name":"Ямало-Ненецкий","namePrepositional":"Ямало-Ненецком","hasMetro":false,"hasHighway":false,"hasDistricts":false,"hasRegionalDistricts":false,"parentId":null,"mainTownId":4965,"lat":66.530937,"lng":66.602432,"boundedBy":{"lowerCorner":{"lat":62.195657,"lng":62.000444},"upperCorner":{"lat":73.721756,"lng":86.007285}}},{"id":4636,"fullName":"Ярославская область","displayName":"Ярославская область","name":"Ярославская","namePrepositional":"Ярославской","hasMetro":false,"hasHighway":false,"hasDistricts":false,"hasRegionalDistricts":false,"parentId":null,"mainTownId":5075,"lat":57.6301,"lng":39.865631,"boundedBy":{"lowerCorner":{"lat":56.534344,"lng":37.327909},"upperCorner":{"lat":58.956012,"lng":41.193498}}},{"id":181462,"fullName":"Республика Крым","displayName":"Крым","name":"Крым","namePrepositional":"Крыму","hasMetro":false,"hasHighway":false,"hasDistricts":false,"hasRegionalDistricts":false,"parentId":null,"mainTownId":184734,"lat":44.95,"lng":34.1,"boundedBy":{"lowerCorner":{"lat":44.905009,"lng":34.036642},"upperCorner":{"lat":44.994991,"lng":34.163358}}},{"id":184723,"fullName":"Севастополь","displayName":"Севастополь","name":"Севастополь","namePrepositional":"Севастополе","hasMetro":false,"hasHighway":false,"hasDistricts":true,"hasRegionalDistricts":false,"parentId":null,"mainTownId":null,"lat":44.6,"lng":33.5333333,"boundedBy":{"lowerCorner":{"lat":44.207248,"lng":33.198679},"upperCorner":{"lat":44.959445,"lng":33.897496}}},{"id":187450,"fullName":"Забайкальский край","displayName":"Забайкальский край","name":"Забайкальский","namePrepositional":"Забайкальском","hasMetro":false,"hasHighway":false,"hasDistricts":false,"hasRegionalDistricts":false,"parentId":null,"mainTownId":5053,"lat":52.045429,"lng":113.498627,"boundedBy":{"lowerCorner":{"lat":52.000492,"lng":113.42575},"upperCorner":{"lat":52.090365,"lng":113.571504}}},{"id":4760,"fullName":"Зеленоград","displayName":"Зеленоград","name":"Зеленоград","namePrepositional":"Зеленограде","hasMetro":false,"hasHighway":false,"hasDistricts":true,"hasRegionalDistricts":false,"parentId":1,"mainTownId":null,"lat":55.991893,"lng":37.214382,"boundedBy":{"lowerCorner":{"lat":55.947797,"lng":37.131647},"upperCorner":{"lat":56.021281,"lng":37.268218}}},{"id":189131,"fullName":"Троицк г.","displayName":"Троицк (Москва)","name":"Троицк","namePrepositional":"Троицке","hasMetro":false,"hasHighway":false,"hasDistricts":false,"hasRegionalDistricts":false,"parentId":1,"mainTownId":null,"lat":55.485163,"lng":37.305516,"boundedBy":{"lowerCorner":{"lat":55.4478,"lng":37.260142},"upperCorner":{"lat":55.511185,"lng":37.327902}}},{"id":189141,"fullName":"Щербинка г.","displayName":"Щербинка","name":"Щербинка","namePrepositional":"Щербинке","hasMetro":false,"hasHighway":false,"hasDistricts":false,"hasRegionalDistricts":false,"parentId":1,"mainTownId":null,"lat":55.508743,"lng":37.563314,"boundedBy":{"lowerCorner":{"lat":55.48702,"lng":37.505391},"upperCorner":{"lat":55.522551,"lng":37.577193}}},{"id":191974,"fullName":"Московский г.","displayName":"Московский","name":"Московский","namePrepositional":"Московском","hasMetro":false,"hasHighway":false,"hasDistricts":true,"hasRegionalDistricts":false,"parentId":1,"mainTownId":null,"lat":55.602144,"lng":37.346551,"boundedBy":{"lowerCorner":{"lat":55.580325,"lng":37.337055},"upperCorner":{"lat":55.613839,"lng":37.382843}}},{"id":4759,"fullName":"Зеленогорск г.","displayName":"Зеленогорск (Санкт-Петербург)","name":"Зеленогорск","namePrepositional":"Зеленогорске","hasMetro":false,"hasHighway":false,"hasDistricts":false,"hasRegionalDistricts":false,"parentId":2,"mainTownId":null,"lat":60.197581,"lng":29.707035,"boundedBy":{"lowerCorner":{"lat":60.181146,"lng":29.63101},"upperCorner":{"lat":60.244809,"lng":29.781613}}},{"id":4810,"fullName":"Колпино г.","displayName":"Колпино","name":"Колпино","namePrepositional":"Колпино","hasMetro":false,"hasHighway":false,"hasDistricts":false,"hasRegionalDistricts":false,"parentId":2,"mainTownId":null,"lat":59.749012,"lng":30.597607,"boundedBy":{"lowerCorner":{"lat":59.721184,"lng":30.507317},"upperCorner":{"lat":59.799308,"lng":30.759528}}},{"id":4821,"fullName":"Красное Село г.","displayName":"Красное Село","name":"Красное Село","namePrepositional":"Красном Селе","hasMetro":false,"hasHighway":false,"hasDistricts":false,"hasRegionalDistricts":false,"parentId":2,"mainTownId":null,"lat":59.733024,"lng":30.087813,"boundedBy":{"lowerCorner":{"lat":59.66743,"lng":30.035163},"upperCorner":{"lat":59.764114,"lng":30.137427}}},{"id":4828,"fullName":"Кронштадт г.","displayName":"Кронштадт","name":"Кронштадт","namePrepositional":"Кронштадте","hasMetro":false,"hasHighway":false,"hasDistricts":false,"hasRegionalDistricts":false,"parentId":2,"mainTownId":null,"lat":59.991988,"lng":29.775469,"boundedBy":{"lowerCorner":{"lat":59.937481,"lng":29.633939},"upperCorner":{"lat":60.037193,"lng":29.95568}}},{"id":4849,"fullName":"Ломоносов г.","displayName":"Ломоносов","name":"Ломоносов","namePrepositional":"Ломоносове","hasMetro":false,"hasHighway":false,"hasDistricts":false,"hasRegionalDistricts":false,"parentId":2,"mainTownId":null,"lat":59.91074,"lng":29.776466,"boundedBy":{"lowerCorner":{"lat":59.865686,"lng":29.647099},"upperCorner":{"lat":59.937594,"lng":29.838458}}},{"id":4921,"fullName":"Павловск г.","displayName":"Павловск (Санкт-Петербург)","name":"Павловск","namePrepositional":"Павловске","hasMetro":false,"hasHighway":false,"hasDistricts":false,"hasRegionalDistricts":false,"parentId":2,"mainTownId":null,"lat":59.686411,"lng":30.431598,"boundedBy":{"lowerCorner":{"lat":59.637482,"lng":30.325624},"upperCorner":{"lat":59.707007,"lng":30.505449}}},{"id":4928,"fullName":"Петергоф г.","displayName":"Петергоф","name":"Петергоф","namePrepositional":"Петергофе","hasMetro":false,"hasHighway":false,"hasDistricts":false,"hasRegionalDistricts":false,"parentId":2,"mainTownId":null,"lat":59.884013,"lng":29.908617,"boundedBy":{"lowerCorner":{"lat":59.828862,"lng":29.78668},"upperCorner":{"lat":59.901982,"lng":30.008968}}},{"id":4948,"fullName":"Пушкин г.","displayName":"Пушкин","name":"Пушкин","namePrepositional":"Пушкине","hasMetro":false,"hasHighway":false,"hasDistricts":false,"hasRegionalDistricts":false,"parentId":2,"mainTownId":null,"lat":59.722463,"lng":30.416947,"boundedBy":{"lowerCorner":{"lat":59.633711,"lng":30.218643},"upperCorner":{"lat":59.761758,"lng":30.462698}}},{"id":4984,"fullName":"Сестрорецк г.","displayName":"Сестрорецк","name":"Сестрорецк","namePrepositional":"Сестрорецке","hasMetro":false,"hasHighway":false,"hasDistricts":false,"hasRegionalDistricts":false,"parentId":2,"mainTownId":null,"lat":60.092411,"lng":29.956066,"boundedBy":{"lowerCorner":{"lat":60.002445,"lng":29.918858},"upperCorner":{"lat":60.142429,"lng":30.147434}}},{"id":4640,"fullName":"Адыгейск г.","displayName":"Адыгейск","name":"Адыгейск","namePrepositional":"Адыгейске","hasMetro":false,"hasHighway":false,"hasDistricts":false,"hasRegionalDistricts":false,"parentId":4553,"mainTownId":null,"lat":44.882365,"lng":39.191151,"boundedBy":{"lowerCorner":{"lat":44.871673,"lng":39.170032},"upperCorner":{"lat":44.896995,"lng":39.211777}}},{"id":4855,"fullName":"Майкоп г.","displayName":"Майкоп","name":"Майкоп","namePrepositional":"Майкопе","hasMetro":false,"hasHighway":false,"hasDistricts":false,"hasRegionalDistricts":false,"parentId":4553,"mainTownId":null,"lat":44.609139,"lng":40.113209,"boundedBy":{"lowerCorner":{"lat":44.564965,"lng":39.8962476},"upperCorner":{"lat":44.79411,"lng":40.1586504}}},{"id":4719,"fullName":"Горно-Алтайск г.","displayName":"Горно-Алтайск","name":"Горно-Алтайск","namePrepositional":"Горно-Алтайске","hasMetro":false,"hasHighway":false,"hasDistricts":false,"hasRegionalDistricts":false,"parentId":4554,"mainTownId":null,"lat":51.958118,"lng":85.971291,"boundedBy":{"lowerCorner":{"lat":51.8702622,"lng":85.8818937},"upperCorner":{"lat":51.9936497,"lng":86.0653842}}},{"id":4644,"fullName":"Алейск г.","displayName":"Алейск","name":"Алейск","namePrepositional":"Алейске","hasMetro":false,"hasHighway":false,"hasDistricts":false,"hasRegionalDistricts":false,"parentId":4555,"mainTownId":null,"lat":52.492167,"lng":82.779448,"boundedBy":{"lowerCorner":{"lat":52.456972,"lng":82.737299},"upperCorner":{"lat":52.55554,"lng":82.838216}}},{"id":4668,"fullName":"Барнаул г.","displayName":"Барнаул","name":"Барнаул","namePrepositional":"Барнауле","hasMetro":false,"hasHighway":false,"hasDistricts":true,"hasRegionalDistricts":false,"parentId":4555,"mainTownId":null,"lat":53.356338,"lng":83.76165,"boundedBy":{"lowerCorner":{"lat":53.0974367,"lng":83.3476699},"upperCorner":{"lat":53.5038759,"lng":83.8986297}}},{"id":4674,"fullName":"Белокуриха г.","displayName":"Белокуриха","name":"Белокуриха","namePrepositional":"Белокурихе","hasMetro":false,"hasHighway":false,"hasDistricts":false,"hasRegionalDistricts":false,"parentId":4555,"mainTownId":null,"lat":51.99606,"lng":84.984004,"boundedBy":{"lowerCorner":{"lat":51.965191,"lng":84.903362},"upperCorner":{"lat":52.018707,"lng":85.041604}}},{"id":4680,"fullName":"Бийск г.","displayName":"Бийск","name":"Бийск","namePrepositional":"Бийске","hasMetro":false,"hasHighway":false,"hasDistricts":false,"hasRegionalDistricts":false,"parentId":4555,"mainTownId":null,"lat":52.541302,"lng":85.217003,"boundedBy":{"lowerCorner":{"lat":52.496369,"lng":85.143307},"upperCorner":{"lat":52.586234,"lng":85.290699}}},{"id":4755,"fullName":"Заринск г.","displayName":"Заринск","name":"Заринск","namePrepositional":"Заринске","hasMetro":false,"hasHighway":false,"hasDistricts":false,"hasRegionalDistricts":false,"parentId":4555,"mainTownId":null,"lat":53.706332,"lng":84.931488,"boundedBy":{"lowerCorner":{"lat":53.664274,"lng":84.861806},"upperCorner":{"lat":53.775425,"lng":85.035333}}},{"id":4764,"fullName":"Змеиногорск г.","displayName":"Змеиногорск","name":"Змеиногорск","namePrepositional":"Змеиногорске","hasMetro":false,"hasHighway":false,"hasDistricts":false,"hasRegionalDistricts":false,"parentId":4555,"mainTownId":null,"lat":51.158015,"lng":82.18727,"boundedBy":{"lowerCorner":{"lat":51.124702,"lng":82.149118},"upperCorner":{"lat":51.191941,"lng":82.26324}}},{"id":4783,"fullName":"Камень-на-Оби г.","displayName":"Камень-на-Оби","name":"Камень-на-Оби","namePrepositional":"Камне-на-Оби","hasMetro":false,"hasHighway":false,"hasDistricts":false,"hasRegionalDistricts":false,"parentId":4555,"mainTownId":null,"lat":53.791486,"lng":81.354558,"boundedBy":{"lowerCorner":{"lat":53.751313,"lng":81.250255},"upperCorner":{"lat":53.828097,"lng":81.368473}}},{"id":4890,"fullName":"Новоалтайск г.","displayName":"Новоалтайск","name":"Новоалтайск","namePrepositional":"Новоалтайске","hasMetro":false,"hasHighway":false,"hasDistricts":false,"hasRegionalDistricts":false,"parentId":4555,"mainTownId":null,"lat":53.412021,"lng":83.93107,"boundedBy":{"lowerCorner":{"lat":53.358281,"lng":83.823434},"upperCorner":{"lat":53.482402,"lng":84.033083}}},{"id":4962,"fullName":"Рубцовск г.","displayName":"Рубцовск","name":"Рубцовск","namePrepositional":"Рубцовске","hasMetro":false,"hasHighway":false,"hasDistricts":false,"hasRegionalDistricts":false,"parentId":4555,"mainTownId":null,"lat":51.52113,"lng":81.202713,"boundedBy":{"lowerCorner":{"lat":51.476189,"lng":81.130676},"upperCorner":{"lat":51.56607,"lng":81.27475}}},{"id":4986,"fullName":"Славгород г.","displayName":"Славгород","name":"Славгород","namePrepositional":"Славгороде","hasMetro":false,"hasHighway":false,"hasDistricts":false,"hasRegionalDistricts":false,"parentId":4555,"mainTownId":null,"lat":52.999375,"lng":78.64594,"boundedBy":{"lowerCorner":{"lat":52.971233,"lng":78.600881},"upperCorner":{"lat":53.019314,"lng":78.69488}}},{"id":5074,"fullName":"Яровое г.","displayName":"Яровое","name":"Яровое","namePrepositional":"Яровом","hasMetro":false,"hasHighway":false,"hasDistricts":false,"hasRegionalDistricts":false,"parentId":4555,"mainTownId":null,"lat":52.923446,"lng":78.569601,"boundedBy":{"lowerCorner":{"lat":52.905559,"lng":78.536624},"upperCorner":{"lat":52.945602,"lng":78.600476}}},{"id":174579,"fullName":"Горняк г.","displayName":"Горняк","name":"Горняк","namePrepositional":"Горняке","hasMetro":false,"hasHighway":false,"hasDistricts":false,"hasRegionalDistricts":false,"parentId":4555,"mainTownId":null,"lat":50.997775,"lng":81.464198,"boundedBy":{"lowerCorner":{"lat":50.968073,"lng":81.399357},"upperCorner":{"lat":51.028942,"lng":81.532676}}},{"id":4673,"fullName":"Белогорск г.","displayName":"Белогорск (Амурская)","name":"Белогорск","namePrepositional":"Белогорске","hasMetro":false,"hasHighway":false,"hasDistricts":false,"hasRegionalDistricts":false,"parentId":4556,"mainTownId":null,"lat":50.921287,"lng":128.473917,"boundedBy":{"lowerCorner":{"lat":50.867905,"lng":128.368212},"upperCorner":{"lat":50.936728,"lng":128.569866}}},{"id":4683,"fullName":"Благовещенск г.","displayName":"Благовещенск","name":"Благовещенск","namePrepositional":"Благовещенске","hasMetro":false,"hasHighway":false,"hasDistricts":false,"hasRegionalDistricts":false,"parentId":4556,"mainTownId":null,"lat":50.27494,"lng":127.534141,"boundedBy":{"lowerCorner":{"lat":50.2069451,"lng":127.3798876},"upperCorner":{"lat":50.5758504,"lng":127.7425064}}},{"id":4761,"fullName":"Зея г.","displayName":"Зея","name":"Зея","namePrepositional":"Зее","hasMetro":false,"hasHighway":false,"hasDistricts":false,"hasRegionalDistricts":false,"parentId":4556,"mainTownId":null,"lat":53.734033,"lng":127.265889,"boundedBy":{"lowerCorner":{"lat":53.707302,"lng":127.144761},"upperCorner":{"lat":53.772716,"lng":127.31421}}},{"id":4954,"fullName":"Райчихинск г.","displayName":"Райчихинск","name":"Райчихинск","namePrepositional":"Райчихинске","hasMetro":false,"hasHighway":false,"hasDistricts":false,"hasRegionalDistricts":false,"parentId":4556,"mainTownId":null,"lat":49.794114,"lng":129.411255,"boundedBy":{"lowerCorner":{"lat":49.760059,"lng":129.372313},"upperCorner":{"lat":49.826401,"lng":129.46589}}},{"id":4975,"fullName":"Свободный г.","displayName":"Свободный","name":"Свободный","namePrepositional":"Свободном","hasMetro":false,"hasHighway":false,"hasDistricts":false,"hasRegionalDistricts":false,"parentId":4556,"mainTownId":null,"lat":51.375889,"lng":128.134147,"boundedBy":{"lowerCorner":{"lat":51.321136,"lng":128.073996},"upperCorner":{"lat":51.46375,"lng":128.18315}}},{"id":5023,"fullName":"Тында г.","displayName":"Тында","name":"Тында","namePrepositional":"Тынде","hasMetro":false,"hasHighway":false,"hasDistricts":false,"hasRegionalDistricts":false,"parentId":4556,"mainTownId":null,"lat":55.154656,"lng":124.729236,"boundedBy":{"lowerCorner":{"lat":55.102045,"lng":124.680556},"upperCorner":{"lat":55.178614,"lng":124.815079}}},{"id":5060,"fullName":"Шимановск г.","displayName":"Шимановск","name":"Шимановск","namePrepositional":"Шимановске","hasMetro":false,"hasHighway":false,"hasDistricts":false,"hasRegionalDistricts":false,"parentId":4556,"mainTownId":null,"lat":51.999509,"lng":127.676123,"boundedBy":{"lowerCorner":{"lat":51.972809,"lng":127.6295},"upperCorner":{"lat":52.025856,"lng":127.718604}}},{"id":174711,"fullName":"Завитинск г.","displayName":"Завитинск","name":"Завитинск","namePrepositional":"Завитинске","hasMetro":false,"hasHighway":false,"hasDistricts":false,"hasRegionalDistricts":false,"parentId":4556,"mainTownId":null,"lat":50.106518,"lng":129.439309,"boundedBy":{"lowerCorner":{"lat":50.077258,"lng":129.409036},"upperCorner":{"lat":50.155232,"lng":129.471837}}},{"id":175879,"fullName":"Сковородино г.","displayName":"Сковородино","name":"Сковородино","namePrepositional":"Сковородино","hasMetro":false,"hasHighway":false,"hasDistricts":false,"hasRegionalDistricts":false,"parentId":4556,"mainTownId":null,"lat":53.987177,"lng":123.943632,"boundedBy":{"lowerCorner":{"lat":53.950605,"lng":123.861463},"upperCorner":{"lat":54.012083,"lng":124.036724}}},{"id":4658,"fullName":"Архангельск г.","displayName":"Архангельск","name":"Архангельск","namePrepositional":"Архангельске","hasMetro":false,"hasHighway":false,"hasDistricts":true,"hasRegionalDistricts":false,"parentId":4557,"mainTownId":null,"lat":64.536926,"lng":40.565571,"boundedBy":{"lowerCorner":{"lat":64.3974631,"lng":40.2849384},"upperCorner":{"lat":64.77250284414399,"lng":40.8365073}}},{"id":4814,"fullName":"Коряжма г.","displayName":"Коряжма","name":"Коряжма","namePrepositional":"Коряжме","hasMetro":false,"hasHighway":false,"hasDistricts":false,"hasRegionalDistricts":false,"parentId":4557,"mainTownId":null,"lat":61.315335,"lng":47.159855,"boundedBy":{"lowerCorner":{"lat":61.255424,"lng":47.080623},"upperCorner":{"lat":61.327766,"lng":47.214805}}},{"id":4866,"fullName":"Мирный г.","displayName":"Мирный (Архангельская)","name":"Мирный","namePrepositional":"Мирном","hasMetro":false,"hasHighway":false,"hasDistricts":false,"hasRegionalDistricts":false,"parentId":4557,"mainTownId":null,"lat":62.764516,"lng":40.336054,"boundedBy":{"lowerCorner":{"lat":62.729963,"lng":40.301828},"upperCorner":{"lat":62.795479,"lng":40.418924}}},{"id":4892,"fullName":"Новодвинск г.","displayName":"Новодвинск","name":"Новодвинск","namePrepositional":"Новодвинске","hasMetro":false,"hasHighway":false,"hasDistricts":false,"hasRegionalDistricts":false,"parentId":4557,"mainTownId":null,"lat":64.413683,"lng":40.820821,"boundedBy":{"lowerCorner":{"lat":64.38219,"lng":40.74697},"upperCorner":{"lat":64.455541,"lng":40.867363}}},{"id":4977,"fullName":"Северодвинск г.","displayName":"Северодвинск","name":"Северодвинск","namePrepositional":"Северодвинске","hasMetro":false,"hasHighway":false,"hasDistricts":false,"hasRegionalDistricts":false,"parentId":4557,"mainTownId":null,"lat":64.566879,"lng":39.84681,"boundedBy":{"lowerCorner":{"lat":64.52203,"lng":39.742509},"upperCorner":{"lat":64.611728,"lng":39.951111}}},{"id":174469,"fullName":"Вельск г.","displayName":"Вельск","name":"Вельск","namePrepositional":"Вельске","hasMetro":false,"hasHighway":false,"hasDistricts":false,"hasRegionalDistricts":false,"parentId":4557,"mainTownId":null,"lat":61.065915,"lng":42.10331,"boundedBy":{"lowerCorner":{"lat":61.026867,"lng":42.032388},"upperCorner":{"lat":61.087616,"lng":42.195845}}},{"id":174936,"fullName":"Каргополь г.","displayName":"Каргополь","name":"Каргополь","namePrepositional":"Каргополе","hasMetro":false,"hasHighway":false,"hasDistricts":false,"hasRegionalDistricts":false,"parentId":4557,"mainTownId":null,"lat":61.5054,"lng":38.947214,"boundedBy":{"lowerCorner":{"lat":61.486938,"lng":38.905029},"upperCorner":{"lat":61.523417,"lng":38.981664}}},{"id":175055,"fullName":"Котлас г.","displayName":"Котлас","name":"Котлас","namePrepositional":"Котласе","hasMetro":false,"hasHighway":false,"hasDistricts":false,"hasRegionalDistricts":false,"parentId":4557,"mainTownId":null,"lat":61.25297,"lng":46.633217,"boundedBy":{"lowerCorner":{"lat":61.162468,"lng":46.570955},"upperCorner":{"lat":61.287227,"lng":46.829849}}},{"id":175296,"fullName":"Мезень г.","displayName":"Мезень","name":"Мезень","namePrepositional":"Мезени","hasMetro":false,"hasHighway":false,"hasDistricts":false,"hasRegionalDistricts":false,"parentId":4557,"mainTownId":null,"lat":65.839904,"lng":44.25314,"boundedBy":{"lowerCorner":{"lat":65.825618,"lng":44.204954},"upperCorner":{"lat":65.873643,"lng":44.274682}}},{"id":175573,"fullName":"Няндома г.","displayName":"Няндома","name":"Няндома","namePrepositional":"Няндоме","hasMetro":false,"hasHighway":false,"hasDistricts":false,"hasRegionalDistricts":false,"parentId":4557,"mainTownId":null,"lat":61.669822,"lng":40.204388,"boundedBy":{"lowerCorner":{"lat":61.626161,"lng":40.15702},"upperCorner":{"lat":61.688811,"lng":40.376424}}},{"id":175599,"fullName":"Онега г.","displayName":"Онега","name":"Онега","namePrepositional":"Онеге","hasMetro":false,"hasHighway":false,"hasDistricts":false,"hasRegionalDistricts":false,"parentId":4557,"mainTownId":null,"lat":63.906914,"lng":38.100336,"boundedBy":{"lowerCorner":{"lat":63.884362,"lng":38.00913},"upperCorner":{"lat":63.948862,"lng":38.175794}}},{"id":175910,"fullName":"Сольвычегодск г.","displayName":"Сольвычегодск","name":"Сольвычегодск","namePrepositional":"Сольвычегодске","hasMetro":false,"hasHighway":false,"hasDistricts":false,"hasRegionalDistricts":false,"parentId":4557,"mainTownId":null,"lat":61.331867,"lng":46.920445,"boundedBy":{"lowerCorner":{"lat":61.326277,"lng":46.8999},"upperCorner":{"lat":61.341085,"lng":46.954617}}},{"id":176376,"fullName":"Шенкурск г.","displayName":"Шенкурск","name":"Шенкурск","namePrepositional":"Шенкурске","hasMetro":false,"hasHighway":false,"hasDistricts":false,"hasRegionalDistricts":false,"parentId":4557,"mainTownId":null,"lat":62.10565,"lng":42.899612,"boundedBy":{"lowerCorner":{"lat":62.094789,"lng":42.879032},"upperCorner":{"lat":62.117289,"lng":42.927298}}},{"id":4660,"fullName":"Астрахань г.","displayName":"Астрахань","name":"Астрахань","namePrepositional":"Астрахани","hasMetro":false,"hasHighway":false,"hasDistricts":true,"hasRegionalDistricts":false,"parentId":4558,"mainTownId":null,"lat":46.354889,"lng":48.052719,"boundedBy":{"lowerCorner":{"lat":46.2594902,"lng":47.8775659},"upperCorner":{"lat":46.4716848,"lng":48.2031061}}},{"id":4765,"fullName":"Знаменск г.","displayName":"Знаменск","name":"Знаменск","namePrepositional":"Знаменске","hasMetro":false,"hasHighway":false,"hasDistricts":false,"hasRegionalDistricts":false,"parentId":4558,"mainTownId":null,"lat":48.586634,"lng":45.736744,"boundedBy":{"lowerCorner":{"lat":48.576597,"lng":45.708069},"upperCorner":{"lat":48.59944,"lng":45.76796}}},{"id":174245,"fullName":"Ахтубинск г.","displayName":"Ахтубинск","name":"Ахтубинск","namePrepositional":"Ахтубинске","hasMetro":false,"hasHighway":false,"hasDistricts":false,"hasRegionalDistricts":false,"parentId":4558,"mainTownId":null,"lat":48.284884,"lng":46.164413,"boundedBy":{"lowerCorner":{"lat":48.228928,"lng":46.139539},"upperCorner":{"lat":48.320563,"lng":46.226622}}},{"id":174899,"fullName":"Камызяк г.","displayName":"Камызяк","name":"Камызяк","namePrepositional":"Камызяке","hasMetro":false,"hasHighway":false,"hasDistricts":false,"hasRegionalDistricts":false,"parentId":4558,"mainTownId":null,"lat":46.110571,"lng":48.073235,"boundedBy":{"lowerCorner":{"lat":46.089312,"lng":48.064314},"upperCorner":{"lat":46.145879,"lng":48.135811}}},{"id":175393,"fullName":"Нариманов г.","displayName":"Нариманов","name":"Нариманов","namePrepositional":"Нариманове","hasMetro":false,"hasHighway":false,"hasDistricts":false,"hasRegionalDistricts":false,"parentId":4558,"mainTownId":null,"lat":46.690301,"lng":47.853623,"boundedBy":{"lowerCorner":{"lat":46.651282,"lng":47.776773},"upperCorner":{"lat":46.742132,"lng":47.891407}}},{"id":176271,"fullName":"Харабали г.","displayName":"Харабали","name":"Харабали","namePrepositional":"Харабали","hasMetro":false,"hasHighway":false,"hasDistricts":false,"hasRegionalDistricts":false,"parentId":4558,"mainTownId":null,"lat":47.409315,"lng":47.252058,"boundedBy":{"lowerCorner":{"lat":47.390773,"lng":47.20875},"upperCorner":{"lat":47.434726,"lng":47.292904}}},{"id":4639,"fullName":"Агидель г.","displayName":"Агидель","name":"Агидель","namePrepositional":"Агидели","hasMetro":false,"hasHighway":false,"hasDistricts":false,"hasRegionalDistricts":false,"parentId":4560,"mainTownId":null,"lat":55.899835,"lng":53.92204,"boundedBy":{"lowerCorner":{"lat":55.830993,"lng":53.900471},"upperCorner":{"lat":55.935178,"lng":54.069274}}},{"id":4832,"fullName":"Кумертау г.","displayName":"Кумертау","name":"Кумертау","namePrepositional":"Кумертау","hasMetro":false,"hasHighway":false,"hasDistricts":false,"hasRegionalDistricts":false,"parentId":4560,"mainTownId":null,"lat":52.756523,"lng":55.796976,"boundedBy":{"lowerCorner":{"lat":52.744967,"lng":55.749599},"upperCorner":{"lat":52.807304,"lng":55.874321}}},{"id":4861,"fullName":"Межгорье г.","displayName":"Межгорье","name":"Межгорье","namePrepositional":"Межгорье","hasMetro":false,"hasHighway":false,"hasDistricts":false,"hasRegionalDistricts":false,"parentId":4560,"mainTownId":null,"lat":54.239989,"lng":57.961225,"boundedBy":{"lowerCorner":{"lat":54.032681,"lng":57.800408},"upperCorner":{"lat":54.252805,"lng":57.987312}}},{"id":4881,"fullName":"Нефтекамск г.","displayName":"Нефтекамск","name":"Нефтекамск","namePrepositional":"Нефтекамске","hasMetro":false,"hasHighway":false,"hasDistricts":false,"hasRegionalDistricts":false,"parentId":4560,"mainTownId":null,"lat":56.091728,"lng":54.261661,"boundedBy":{"lowerCorner":{"lat":56.046822,"lng":54.181333},"upperCorner":{"lat":56.136634,"lng":54.341989}}},{"id":4912,"fullName":"Октябрьский г.","displayName":"Октябрьский","name":"Октябрьский","namePrepositional":"Октябрьском","hasMetro":false,"hasHighway":false,"hasDistricts":false,"hasRegionalDistricts":false,"parentId":4560,"mainTownId":null,"lat":54.48505,"lng":53.455422,"boundedBy":{"lowerCorner":{"lat":54.440132,"lng":53.378275},"upperCorner":{"lat":54.529968,"lng":53.532569}}},{"id":4964,"fullName":"Салават г.","displayName":"Салават","name":"Салават","namePrepositional":"Салавате","hasMetro":false,"hasHighway":false,"hasDistricts":false,"hasRegionalDistricts":false,"parentId":4560,"mainTownId":null,"lat":53.359249,"lng":55.92992,"boundedBy":{"lowerCorner":{"lat":53.314322,"lng":55.854821},"upperCorner":{"lat":53.404175,"lng":56.005019}}},{"id":4985,"fullName":"Сибай г.","displayName":"Сибай","name":"Сибай","namePrepositional":"Сибае","hasMetro":false,"hasHighway":false,"hasDistricts":false,"hasRegionalDistricts":false,"parentId":4560,"mainTownId":null,"lat":52.72051,"lng":58.666429,"boundedBy":{"lowerCorner":{"lat":52.664111,"lng":58.584027},"upperCorner":{"lat":52.76613,"lng":58.781081}}},{"id":62167,"fullName":"Иглино с.","displayName":"Иглино","name":"Иглино","namePrepositional":"Иглино","hasMetro":false,"hasHighway":false,"hasDistricts":false,"hasRegionalDistricts":false,"parentId":4560,"mainTownId":null,"lat":54.83629,"lng":56.41976,"boundedBy":{"lowerCorner":{"lat":54.780792,"lng":56.36879},"upperCorner":{"lat":54.861067,"lng":56.469716}}},{"id":174278,"fullName":"Баймак г.","displayName":"Баймак","name":"Баймак","namePrepositional":"Баймаке","hasMetro":false,"hasHighway":false,"hasDistricts":false,"hasRegionalDistricts":false,"parentId":4560,"mainTownId":null,"lat":52.591257,"lng":58.311199,"boundedBy":{"lowerCorner":{"lat":52.548914,"lng":58.274207},"upperCorner":{"lat":52.617602,"lng":58.340808}}},{"id":174316,"fullName":"Белебей г.","displayName":"Белебей","name":"Белебей","namePrepositional":"Белебее","hasMetro":false,"hasHighway":false,"hasDistricts":false,"hasRegionalDistricts":false,"parentId":4560,"mainTownId":null,"lat":54.103441,"lng":54.111279,"boundedBy":{"lowerCorner":{"lat":54.052248,"lng":54.043276},"upperCorner":{"lat":54.133416,"lng":54.167397}}},{"id":174325,"fullName":"Белорецк г.","displayName":"Белорецк","name":"Белорецк","namePrepositional":"Белорецке","hasMetro":false,"hasHighway":false,"hasDistricts":false,"hasRegionalDistricts":false,"parentId":4560,"mainTownId":null,"lat":53.967621,"lng":58.410023,"boundedBy":{"lowerCorner":{"lat":53.924967,"lng":58.32276},"upperCorner":{"lat":54.006935,"lng":58.474728}}},{"id":174350,"fullName":"Бирск г.","displayName":"Бирск","name":"Бирск","namePrepositional":"Бирске","hasMetro":false,"hasHighway":false,"hasDistricts":false,"hasRegionalDistricts":false,"parentId":4560,"mainTownId":null,"lat":55.417531,"lng":55.530707,"boundedBy":{"lowerCorner":{"lat":55.340369,"lng":55.437722},"upperCorner":{"lat":55.480286,"lng":55.597299}}},{"id":174357,"fullName":"Благовещенск г.","displayName":"Благовещенск (Башкортостан)","name":"Благовещенск","namePrepositional":"Благовещенске","hasMetro":false,"hasHighway":false,"hasDistricts":false,"hasRegionalDistricts":false,"parentId":4560,"mainTownId":null,"lat":55.049854,"lng":55.955224,"boundedBy":{"lowerCorner":{"lat":55.017292,"lng":55.92248},"upperCorner":{"lat":55.073169,"lng":56.029757}}},{"id":174606,"fullName":"Давлеканово г.","displayName":"Давлеканово","name":"Давлеканово","namePrepositional":"Давлеканово","hasMetro":false,"hasHighway":false,"hasDistricts":false,"hasRegionalDistricts":false,"parentId":4560,"mainTownId":null,"lat":54.222727,"lng":55.03127,"boundedBy":{"lowerCorner":{"lat":54.175118,"lng":54.967795},"upperCorner":{"lat":54.237874,"lng":55.072853}}},{"id":174655,"fullName":"Дюртюли г.","displayName":"Дюртюли","name":"Дюртюли","namePrepositional":"Дюртюлах","hasMetro":false,"hasHighway":false,"hasDistricts":false,"hasRegionalDistricts":false,"parentId":4560,"mainTownId":null,"lat":55.48529,"lng":54.873463,"boundedBy":{"lowerCorner":{"lat":55.436821,"lng":54.803449},"upperCorner":{"lat":55.512551,"lng":55.010924}}},{"id":174845,"fullName":"Ишимбай г.","displayName":"Ишимбай","name":"Ишимбай","namePrepositional":"Ишимбае","hasMetro":false,"hasHighway":false,"hasDistricts":false,"hasRegionalDistricts":false,"parentId":4560,"mainTownId":null,"lat":53.454621,"lng":56.04395,"boundedBy":{"lowerCorner":{"lat":53.342479,"lng":55.964611},"upperCorner":{"lat":53.496326,"lng":56.125832}}},{"id":175298,"fullName":"Мелеуз г.","displayName":"Мелеуз","name":"Мелеуз","namePrepositional":"Мелеузе","hasMetro":false,"hasHighway":false,"hasDistricts":false,"hasRegionalDistricts":false,"parentId":4560,"mainTownId":null,"lat":52.958964,"lng":55.92831,"boundedBy":{"lowerCorner":{"lat":52.929043,"lng":55.882658},"upperCorner":{"lat":53.002935,"lng":56.015752}}},{"id":175989,"fullName":"Стерлитамак г.","displayName":"Стерлитамак","name":"Стерлитамак","namePrepositional":"Стерлитамаке","hasMetro":false,"hasHighway":false,"hasDistricts":false,"hasRegionalDistricts":false,"parentId":4560,"mainTownId":null,"lat":53.622341,"lng":55.95758,"boundedBy":{"lowerCorner":{"lat":53.577416,"lng":55.882015},"upperCorner":{"lat":53.667265,"lng":56.033145}}},{"id":176141,"fullName":"Туймазы г.","displayName":"Туймазы","name":"Туймазы","namePrepositional":"Туймазах","hasMetro":false,"hasHighway":false,"hasDistricts":false,"hasRegionalDistricts":false,"parentId":4560,"mainTownId":null,"lat":54.599988,"lng":53.695008,"boundedBy":{"lowerCorner":{"lat":54.564622,"lng":53.635477},"upperCorner":{"lat":54.634057,"lng":53.787768}}},{"id":176245,"fullName":"Уфа г.","displayName":"Уфа","name":"Уфа","namePrepositional":"Уфе","hasMetro":false,"hasHighway":false,"hasDistricts":true,"hasRegionalDistricts":false,"parentId":4560,"mainTownId":null,"lat":54.7355,"lng":55.991982,"boundedBy":{"lowerCorner":{"lat":54.500751,"lng":55.778653},"upperCorner":{"lat":54.959875,"lng":56.298556}}},{"id":176248,"fullName":"Учалы г.","displayName":"Учалы","name":"Учалы","namePrepositional":"Учалах","hasMetro":false,"hasHighway":false,"hasDistricts":false,"hasRegionalDistricts":false,"parentId":4560,"mainTownId":null,"lat":54.319176,"lng":59.378631,"boundedBy":{"lowerCorner":{"lat":54.269008,"lng":59.318839},"upperCorner":{"lat":54.353979,"lng":59.477877}}},{"id":176443,"fullName":"Янаул г.","displayName":"Янаул","name":"Янаул","namePrepositional":"Янауле","hasMetro":false,"hasHighway":false,"hasDistricts":false,"hasRegionalDistricts":false,"parentId":4560,"mainTownId":null,"lat":56.264957,"lng":54.929824,"boundedBy":{"lowerCorner":{"lat":56.236071,"lng":54.879725},"upperCorner":{"lat":56.295205,"lng":55.014849}}},{"id":4671,"fullName":"Белгород г.","displayName":"Белгород","name":"Белгород","namePrepositional":"Белгороде","hasMetro":false,"hasHighway":false,"hasDistricts":true,"hasRegionalDistricts":false,"parentId":4561,"mainTownId":null,"lat":50.596611,"lng":36.609211,"boundedBy":{"lowerCorner":{"lat":50.5050365,"lng":36.4448198},"upperCorner":{"lat":50.6669587,"lng":36.6864635}}},{"id":174172,"fullName":"Алексеевка г.","displayName":"Алексеевка","name":"Алексеевка","namePrepositional":"Алексеевке","hasMetro":false,"hasHighway":false,"hasDistricts":false,"hasRegionalDistricts":false,"parentId":4561,"mainTownId":null,"lat":50.629961,"lng":38.688095,"boundedBy":{"lowerCorner":{"lat":50.58241,"lng":38.616337},"upperCorner":{"lat":50.658223,"lng":38.763832}}},{"id":174352,"fullName":"Бирюч г.","displayName":"Бирюч","name":"Бирюч","namePrepositional":"Бирюче","hasMetro":false,"hasHighway":false,"hasDistricts":false,"hasRegionalDistricts":false,"parentId":4561,"mainTownId":null,"lat":50.648389,"lng":38.400553,"boundedBy":{"lowerCorner":{"lat":50.625732,"lng":38.342351},"upperCorner":{"lat":50.670493,"lng":38.446107}}},{"id":174456,"fullName":"Валуйки г.","displayName":"Валуйки","name":"Валуйки","namePrepositional":"Валуйках","hasMetro":false,"hasHighway":false,"hasDistricts":false,"hasRegionalDistricts":false,"parentId":4561,"mainTownId":null,"lat":50.211194,"lng":38.099914,"boundedBy":{"lowerCorner":{"lat":50.149269,"lng":38.054378},"upperCorner":{"lat":50.235601,"lng":38.17575}}},{"id":174588,"fullName":"Грайворон г.","displayName":"Грайворон","name":"Грайворон","namePrepositional":"Грайвороне","hasMetro":false,"hasHighway":false,"hasDistricts":false,"hasRegionalDistricts":false,"parentId":4561,"mainTownId":null,"lat":50.486223,"lng":35.666351,"boundedBy":{"lowerCorner":{"lat":50.45808,"lng":35.653172},"upperCorner":{"lat":50.492888,"lng":35.720429}}},{"id":174596,"fullName":"Губкин г.","displayName":"Губкин","name":"Губкин","namePrepositional":"Губкине","hasMetro":false,"hasHighway":false,"hasDistricts":false,"hasRegionalDistricts":false,"parentId":4561,"mainTownId":null,"lat":51.283644,"lng":37.534748,"boundedBy":{"lowerCorner":{"lat":51.23816,"lng":37.451716},"upperCorner":{"lat":51.316768,"lng":37.692645}}},{"id":175045,"fullName":"Короча г.","displayName":"Короча","name":"Короча","namePrepositional":"Короче","hasMetro":false,"hasHighway":false,"hasDistricts":false,"hasRegionalDistricts":false,"parentId":4561,"mainTownId":null,"lat":50.813011,"lng":37.189678,"boundedBy":{"lowerCorner":{"lat":50.801183,"lng":37.17155},"upperCorner":{"lat":50.822668,"lng":37.207959}}},{"id":175557,"fullName":"Новый Оскол г.","displayName":"Новый Оскол","name":"Новый Оскол","namePrepositional":"Новом Осколе","hasMetro":false,"hasHighway":false,"hasDistricts":false,"hasRegionalDistricts":false,"parentId":4561,"mainTownId":null,"lat":50.760542,"lng":37.864816,"boundedBy":{"lowerCorner":{"lat":50.72425,"lng":37.841037},"upperCorner":{"lat":50.797989,"lng":37.928147}}},{"id":175981,"fullName":"Старый Оскол г.","displayName":"Старый Оскол","name":"Старый Оскол","namePrepositional":"Старом Осколе","hasMetro":false,"hasHighway":false,"hasDistricts":false,"hasRegionalDistricts":false,"parentId":4561,"mainTownId":null,"lat":51.304901,"lng":37.856892,"boundedBy":{"lowerCorner":{"lat":51.259959,"lng":37.785194},"upperCorner":{"lat":51.349843,"lng":37.92859}}},{"id":175994,"fullName":"Строитель г.","displayName":"Строитель","name":"Строитель","namePrepositional":"Строителе","hasMetro":false,"hasHighway":false,"hasDistricts":false,"hasRegionalDistricts":false,"parentId":4561,"mainTownId":null,"lat":50.784551,"lng":36.488686,"boundedBy":{"lowerCorner":{"lat":50.751914,"lng":36.436836},"upperCorner":{"lat":50.833717,"lng":36.530072}}},{"id":176371,"fullName":"Шебекино г.","displayName":"Шебекино","name":"Шебекино","namePrepositional":"Шебекино","hasMetro":false,"hasHighway":false,"hasDistricts":false,"hasRegionalDistricts":false,"parentId":4561,"mainTownId":null,"lat":50.400498,"lng":36.887916,"boundedBy":{"lowerCorner":{"lat":50.367287,"lng":36.831735},"upperCorner":{"lat":50.444963,"lng":36.981601}}},{"id":4691,"fullName":"Брянск г.","displayName":"Брянск","name":"Брянск","namePrepositional":"Брянске","hasMetro":false,"hasHighway":false,"hasDistricts":true,"hasRegionalDistricts":false,"parentId":4562,"mainTownId":null,"lat":53.310661,"lng":34.300369,"boundedBy":{"lowerCorner":{"lat":53.184412,"lng":34.194748},"upperCorner":{"lat":53.374508,"lng":34.686021}}},{"id":4807,"fullName":"Клинцы г.","displayName":"Клинцы","name":"Клинцы","namePrepositional":"Клинцах","hasMetro":false,"hasHighway":false,"hasDistricts":false,"hasRegionalDistricts":false,"parentId":4562,"mainTownId":null,"lat":52.752811,"lng":32.234301,"boundedBy":{"lowerCorner":{"lat":52.721377,"lng":32.152734},"upperCorner":{"lat":52.80493,"lng":32.349699}}},{"id":4893,"fullName":"Новозыбков г.","displayName":"Новозыбков","name":"Новозыбков","namePrepositional":"Новозыбкове","hasMetro":false,"hasHighway":false,"hasDistricts":false,"hasRegionalDistricts":false,"parentId":4562,"mainTownId":null,"lat":52.536717,"lng":31.933222,"boundedBy":{"lowerCorner":{"lat":52.494152,"lng":31.875155},"upperCorner":{"lat":52.580298,"lng":31.993346}}},{"id":4981,"fullName":"Сельцо г.","displayName":"Сельцо","name":"Сельцо","namePrepositional":"Сельце","hasMetro":false,"hasHighway":false,"hasDistricts":false,"hasRegionalDistricts":false,"parentId":4562,"mainTownId":null,"lat":53.373933,"lng":34.105932,"boundedBy":{"lowerCorner":{"lat":53.355573,"lng":34.002159},"upperCorner":{"lat":53.448095,"lng":34.154711}}},{"id":174657,"fullName":"Дятьково г.","displayName":"Дятьково","name":"Дятьково","namePrepositional":"Дятьково","hasMetro":false,"hasHighway":false,"hasDistricts":false,"hasRegionalDistricts":false,"parentId":4562,"mainTownId":null,"lat":53.597306,"lng":34.339656,"boundedBy":{"lowerCorner":{"lat":53.571412,"lng":34.288739},"upperCorner":{"lat":53.621805,"lng":34.421672}}},{"id":174708,"fullName":"Жуковка г.","displayName":"Жуковка","name":"Жуковка","namePrepositional":"Жуковке","hasMetro":false,"hasHighway":false,"hasDistricts":false,"hasRegionalDistricts":false,"parentId":4562,"mainTownId":null,"lat":53.533062,"lng":33.732547,"boundedBy":{"lowerCorner":{"lat":53.514262,"lng":33.696273},"upperCorner":{"lat":53.550318,"lng":33.76009}}},{"id":174930,"fullName":"Карачев г.","displayName":"Карачев","name":"Карачев","namePrepositional":"Карачеве","hasMetro":false,"hasHighway":false,"hasDistricts":false,"hasRegionalDistricts":false,"parentId":4562,"mainTownId":null,"lat":53.121594,"lng":34.982796,"boundedBy":{"lowerCorner":{"lat":53.0953,"lng":34.916069},"upperCorner":{"lat":53.142924,"lng":35.025573}}},{"id":175289,"fullName":"Мглин г.","displayName":"Мглин","name":"Мглин","namePrepositional":"Мглине","hasMetro":false,"hasHighway":false,"hasDistricts":false,"hasRegionalDistricts":false,"parentId":4562,"mainTownId":null,"lat":53.061069,"lng":32.847806,"boundedBy":{"lowerCorner":{"lat":53.016394,"lng":32.820766},"upperCorner":{"lat":53.08224,"lng":32.876758}}},{"id":175712,"fullName":"Почеп г.","displayName":"Почеп","name":"Почеп","namePrepositional":"Почепе","hasMetro":false,"hasHighway":false,"hasDistricts":false,"hasRegionalDistricts":false,"parentId":4562,"mainTownId":null,"lat":52.92913,"lng":33.454267,"boundedBy":{"lowerCorner":{"lat":52.891511,"lng":33.397386},"upperCorner":{"lat":52.958623,"lng":33.499075}}},{"id":175844,"fullName":"Севск г.","displayName":"Севск","name":"Севск","namePrepositional":"Севске","hasMetro":false,"hasHighway":false,"hasDistricts":false,"hasRegionalDistricts":false,"parentId":4562,"mainTownId":null,"lat":52.156089,"lng":34.495091,"boundedBy":{"lowerCorner":{"lat":52.10608,"lng":34.466687},"upperCorner":{"lat":52.176986,"lng":34.520199}}},{"id":175949,"fullName":"Стародуб г.","displayName":"Стародуб","name":"Стародуб","namePrepositional":"Стародубе","hasMetro":false,"hasHighway":false,"hasDistricts":false,"hasRegionalDistricts":false,"parentId":4562,"mainTownId":null,"lat":52.585277,"lng":32.760346,"boundedBy":{"lowerCorner":{"lat":52.543471,"lng":32.700284},"upperCorner":{"lat":52.611002,"lng":32.809969}}},{"id":176010,"fullName":"Сураж г.","displayName":"Сураж","name":"Сураж","namePrepositional":"Сураже","hasMetro":false,"hasHighway":false,"hasDistricts":false,"hasRegionalDistricts":false,"parentId":4562,"mainTownId":null,"lat":53.013891,"lng":32.393043,"boundedBy":{"lowerCorner":{"lat":52.973212,"lng":32.341776},"upperCorner":{"lat":53.058672,"lng":32.450032}}},{"id":176131,"fullName":"Трубчевск г.","displayName":"Трубчевск","name":"Трубчевск","namePrepositional":"Трубчевске","hasMetro":false,"hasHighway":false,"hasDistricts":false,"hasRegionalDistricts":false,"parentId":4562,"mainTownId":null,"lat":52.579077,"lng":33.766073,"boundedBy":{"lowerCorner":{"lat":52.527141,"lng":33.72987},"upperCorner":{"lat":52.616164,"lng":33.808922}}},{"id":176191,"fullName":"Унеча г.","displayName":"Унеча","name":"Унеча","namePrepositional":"Унече","hasMetro":false,"hasHighway":false,"hasDistricts":false,"hasRegionalDistricts":false,"parentId":4562,"mainTownId":null,"lat":52.845115,"lng":32.670676,"boundedBy":{"lowerCorner":{"lat":52.822255,"lng":32.628644},"upperCorner":{"lat":52.871986,"lng":32.725877}}},{"id":176261,"fullName":"Фокино г.","displayName":"Фокино (Брянская)","name":"Фокино","namePrepositional":"Фокино","hasMetro":false,"hasHighway":false,"hasDistricts":false,"hasRegionalDistricts":false,"parentId":4562,"mainTownId":null,"lat":53.45543,"lng":34.415887,"boundedBy":{"lowerCorner":{"lat":53.395658,"lng":34.341111},"upperCorner":{"lat":53.485735,"lng":34.45208}}},{"id":276924,"fullName":"Злынка г.","displayName":"Злынка","name":"Злынка","namePrepositional":"Злынке","hasMetro":false,"hasHighway":false,"hasDistricts":false,"hasRegionalDistricts":false,"parentId":4562,"mainTownId":null,"lat":52.427384,"lng":31.737075,"boundedBy":{"lowerCorner":{"lat":52.408341,"lng":31.704493},"upperCorner":{"lat":52.456561,"lng":31.778137}}},{"id":4976,"fullName":"Северобайкальск г.","displayName":"Северобайкальск","name":"Северобайкальск","namePrepositional":"Северобайкальске","hasMetro":false,"hasHighway":false,"hasDistricts":false,"hasRegionalDistricts":false,"parentId":4563,"mainTownId":null,"lat":55.635996,"lng":109.335597,"boundedBy":{"lowerCorner":{"lat":55.602866,"lng":109.254354},"upperCorner":{"lat":55.650698,"lng":109.366239}}},{"id":5026,"fullName":"Улан-Удэ г.","displayName":"Улан-Удэ","name":"Улан-Удэ","namePrepositional":"Улан-Удэ","hasMetro":false,"hasHighway":false,"hasDistricts":true,"hasRegionalDistricts":false,"parentId":4563,"mainTownId":null,"lat":51.840839,"lng":107.608093,"boundedBy":{"lowerCorner":{"lat":51.7560945,"lng":107.399006},"upperCorner":{"lat":51.9130762,"lng":107.7860072}}},{"id":174251,"fullName":"Бабушкин г.","displayName":"Бабушкин","name":"Бабушкин","namePrepositional":"Бабушкине","hasMetro":false,"hasHighway":false,"hasDistricts":false,"hasRegionalDistricts":false,"parentId":4563,"mainTownId":null,"lat":51.715833,"lng":105.864363,"boundedBy":{"lowerCorner":{"lat":51.703846,"lng":105.830021},"upperCorner":{"lat":51.72273,"lng":105.899326}}},{"id":174604,"fullName":"Гусиноозерск г.","displayName":"Гусиноозерск","name":"Гусиноозерск","namePrepositional":"Гусиноозерске","hasMetro":false,"hasHighway":false,"hasDistricts":false,"hasRegionalDistricts":false,"parentId":4563,"mainTownId":null,"lat":51.285526,"lng":106.529323,"boundedBy":{"lowerCorner":{"lat":51.243178,"lng":106.446597},"upperCorner":{"lat":51.320861,"lng":106.562669}}},{"id":174720,"fullName":"Закаменск г.","displayName":"Закаменск","name":"Закаменск","namePrepositional":"Закаменске","hasMetro":false,"hasHighway":false,"hasDistricts":false,"hasRegionalDistricts":false,"parentId":4563,"mainTownId":null,"lat":50.372602,"lng":103.286764,"boundedBy":{"lowerCorner":{"lat":50.330581,"lng":103.26516},"upperCorner":{"lat":50.417214,"lng":103.327368}}},{"id":175174,"fullName":"Кяхта г.","displayName":"Кяхта","name":"Кяхта","namePrepositional":"Кяхте","hasMetro":false,"hasHighway":false,"hasDistricts":false,"hasRegionalDistricts":false,"parentId":4563,"mainTownId":null,"lat":50.355214,"lng":106.449903,"boundedBy":{"lowerCorner":{"lat":50.320454,"lng":106.411617},"upperCorner":{"lat":50.395301,"lng":106.490426}}},{"id":4703,"fullName":"Владимир г.","displayName":"Владимир","name":"Владимир","namePrepositional":"Владимире","hasMetro":false,"hasHighway":false,"hasDistricts":true,"hasRegionalDistricts":false,"parentId":4564,"mainTownId":null,"lat":56.127701,"lng":40.407559,"boundedBy":{"lowerCorner":{"lat":56.0473765,"lng":40.1649638},"upperCorner":{"lat":56.2264328,"lng":40.6776121}}},{"id":4952,"fullName":"Радужный г.","displayName":"Радужный (Владимирская)","name":"Радужный","namePrepositional":"Радужном","hasMetro":false,"hasHighway":false,"hasDistricts":false,"hasRegionalDistricts":false,"parentId":4564,"mainTownId":null,"lat":55.996052,"lng":40.332281,"boundedBy":{"lowerCorner":{"lat":55.971038,"lng":40.259787},"upperCorner":{"lat":56.010946,"lng":40.350194}}},{"id":174549,"fullName":"Вязники г.","displayName":"Вязники","name":"Вязники","namePrepositional":"Вязниках","hasMetro":false,"hasHighway":false,"hasDistricts":false,"hasRegionalDistricts":false,"parentId":4564,"mainTownId":null,"lat":56.247021,"lng":42.158862,"boundedBy":{"lowerCorner":{"lat":56.178453,"lng":42.077896},"upperCorner":{"lat":56.265827,"lng":42.2201}}},{"id":174585,"fullName":"Гороховец г.","displayName":"Гороховец","name":"Гороховец","namePrepositional":"Гороховце","hasMetro":false,"hasHighway":false,"hasDistricts":false,"hasRegionalDistricts":false,"parentId":4564,"mainTownId":null,"lat":56.201695,"lng":42.691194,"boundedBy":{"lowerCorner":{"lat":56.178553,"lng":42.651722},"upperCorner":{"lat":56.225518,"lng":42.784421}}},{"id":174605,"fullName":"Гусь-Хрустальный г.","displayName":"Гусь-Хрустальный","name":"Гусь-Хрустальный","namePrepositional":"Гусь-Хрустальном","hasMetro":false,"hasHighway":false,"hasDistricts":false,"hasRegionalDistricts":false,"parentId":4564,"mainTownId":null,"lat":55.619818,"lng":40.657902,"boundedBy":{"lowerCorner":{"lat":55.579063,"lng":40.460066},"upperCorner":{"lat":55.688416,"lng":40.716706}}},{"id":174898,"fullName":"Камешково г.","displayName":"Камешково","name":"Камешково","namePrepositional":"Камешково","hasMetro":false,"hasHighway":false,"hasDistricts":false,"hasRegionalDistricts":false,"parentId":4564,"mainTownId":null,"lat":56.348916,"lng":40.995588,"boundedBy":{"lowerCorner":{"lat":56.337781,"lng":40.964623},"upperCorner":{"lat":56.365877,"lng":41.036974}}},{"id":174912,"fullName":"Карабаново г.","displayName":"Карабаново","name":"Карабаново","namePrepositional":"Карабаново","hasMetro":false,"hasHighway":false,"hasDistricts":false,"hasRegionalDistricts":false,"parentId":4564,"mainTownId":null,"lat":56.313269,"lng":38.703438,"boundedBy":{"lowerCorner":{"lat":56.294161,"lng":38.675267},"upperCorner":{"lat":56.334063,"lng":38.733738}}},{"id":174987,"fullName":"Киржач г.","displayName":"Киржач","name":"Киржач","namePrepositional":"Киржаче","hasMetro":false,"hasHighway":false,"hasDistricts":false,"hasRegionalDistricts":false,"parentId":4564,"mainTownId":null,"lat":56.161694,"lng":38.872025,"boundedBy":{"lowerCorner":{"lat":56.102368,"lng":38.813607},"upperCorner":{"lat":56.195836,"lng":38.921809}}},{"id":175012,"fullName":"Ковров г.","displayName":"Ковров","name":"Ковров","namePrepositional":"Коврове","hasMetro":false,"hasHighway":false,"hasDistricts":false,"hasRegionalDistricts":false,"parentId":4564,"mainTownId":null,"lat":56.386719,"lng":41.310871,"boundedBy":{"lowerCorner":{"lat":56.341815,"lng":41.229923},"upperCorner":{"lat":56.431623,"lng":41.391819}}},{"id":175025,"fullName":"Кольчугино г.","displayName":"Кольчугино","name":"Кольчугино","namePrepositional":"Кольчугино","hasMetro":false,"hasHighway":false,"hasDistricts":false,"hasRegionalDistricts":false,"parentId":4564,"mainTownId":null,"lat":56.293901,"lng":39.376042,"boundedBy":{"lowerCorner":{"lat":56.270711,"lng":39.32279},"upperCorner":{"lat":56.394535,"lng":39.418407}}},{"id":175048,"fullName":"Костерево г.","displayName":"Костерево","name":"Костерево","namePrepositional":"Костерево","hasMetro":false,"hasHighway":false,"hasDistricts":false,"hasRegionalDistricts":false,"parentId":4564,"mainTownId":null,"lat":55.933701,"lng":39.624732,"boundedBy":{"lowerCorner":{"lat":55.891941,"lng":39.58173},"upperCorner":{"lat":55.957283,"lng":39.69118}}},{"id":175147,"fullName":"Курлово г.","displayName":"Курлово","name":"Курлово","namePrepositional":"Курлово","hasMetro":false,"hasHighway":false,"hasDistricts":false,"hasRegionalDistricts":false,"parentId":4564,"mainTownId":null,"lat":55.454968,"lng":40.611208,"boundedBy":{"lowerCorner":{"lat":55.435876,"lng":40.588723},"upperCorner":{"lat":55.46732,"lng":40.635858}}},{"id":175182,"fullName":"Лакинск г.","displayName":"Лакинск","name":"Лакинск","namePrepositional":"Лакинске","hasMetro":false,"hasHighway":false,"hasDistricts":false,"hasRegionalDistricts":false,"parentId":4564,"mainTownId":null,"lat":56.018001,"lng":39.956525,"boundedBy":{"lowerCorner":{"lat":56.00016,"lng":39.911834},"upperCorner":{"lat":56.034551,"lng":40.010352}}},{"id":175297,"fullName":"Меленки г.","displayName":"Меленки","name":"Меленки","namePrepositional":"Меленках","hasMetro":false,"hasHighway":false,"hasDistricts":false,"hasRegionalDistricts":false,"parentId":4564,"mainTownId":null,"lat":55.338715,"lng":41.63403,"boundedBy":{"lowerCorner":{"lat":55.317235,"lng":41.580661},"upperCorner":{"lat":55.352746,"lng":41.658769}}},{"id":175373,"fullName":"Муром г.","displayName":"Муром","name":"Муром","namePrepositional":"Муроме","hasMetro":false,"hasHighway":false,"hasDistricts":false,"hasRegionalDistricts":false,"parentId":4564,"mainTownId":null,"lat":55.574291,"lng":42.05151,"boundedBy":{"lowerCorner":{"lat":55.529381,"lng":41.972242},"upperCorner":{"lat":55.619201,"lng":42.130778}}},{"id":175668,"fullName":"Петушки г.","displayName":"Петушки","name":"Петушки","namePrepositional":"Петушках","hasMetro":false,"hasHighway":false,"hasDistricts":false,"hasRegionalDistricts":false,"parentId":4564,"mainTownId":null,"lat":55.930967,"lng":39.4599,"boundedBy":{"lowerCorner":{"lat":55.909615,"lng":39.409541},"upperCorner":{"lat":55.949667,"lng":39.506415}}},{"id":175696,"fullName":"Покров г.","displayName":"Покров","name":"Покров","namePrepositional":"Покрове","hasMetro":false,"hasHighway":false,"hasDistricts":false,"hasRegionalDistricts":false,"parentId":4564,"mainTownId":null,"lat":55.916633,"lng":39.173374,"boundedBy":{"lowerCorner":{"lat":55.889225,"lng":39.112405},"upperCorner":{"lat":55.93485,"lng":39.210483}}},{"id":175891,"fullName":"Собинка г.","displayName":"Собинка","name":"Собинка","namePrepositional":"Собинке","hasMetro":false,"hasHighway":false,"hasDistricts":false,"hasRegionalDistricts":false,"parentId":4564,"mainTownId":null,"lat":55.993837,"lng":40.017943,"boundedBy":{"lowerCorner":{"lat":55.960301,"lng":39.962831},"upperCorner":{"lat":56.018756,"lng":40.069605}}},{"id":175995,"fullName":"Струнино г.","displayName":"Струнино","name":"Струнино","namePrepositional":"Струнино","hasMetro":false,"hasHighway":false,"hasDistricts":false,"hasRegionalDistricts":false,"parentId":4564,"mainTownId":null,"lat":56.37493,"lng":38.584079,"boundedBy":{"lowerCorner":{"lat":56.352657,"lng":38.554003},"upperCorner":{"lat":56.389956,"lng":38.621817}}},{"id":176002,"fullName":"Судогда г.","displayName":"Судогда","name":"Судогда","namePrepositional":"Судогде","hasMetro":false,"hasHighway":false,"hasDistricts":false,"hasRegionalDistricts":false,"parentId":4564,"mainTownId":null,"lat":55.949879,"lng":40.856295,"boundedBy":{"lowerCorner":{"lat":55.940694,"lng":40.833981},"upperCorner":{"lat":55.970988,"lng":40.918315}}},{"id":176004,"fullName":"Суздаль г.","displayName":"Суздаль","name":"Суздаль","namePrepositional":"Суздале","hasMetro":false,"hasHighway":false,"hasDistricts":false,"hasRegionalDistricts":false,"parentId":4564,"mainTownId":null,"lat":56.419836,"lng":40.449457,"boundedBy":{"lowerCorner":{"lat":56.399089,"lng":40.418268},"upperCorner":{"lat":56.458428,"lng":40.478266}}},{"id":176426,"fullName":"Юрьев-Польский г.","displayName":"Юрьев-Польский","name":"Юрьев-Польский","namePrepositional":"Юрьев-Польском","hasMetro":false,"hasHighway":false,"hasDistricts":false,"hasRegionalDistricts":false,"parentId":4564,"mainTownId":null,"lat":56.49925,"lng":39.680814,"boundedBy":{"lowerCorner":{"lat":56.469721,"lng":39.642007},"upperCorner":{"lat":56.518751,"lng":39.703011}}},{"id":207826,"fullName":"Александров г.","displayName":"Александров","name":"Александров","namePrepositional":"Александрове","hasMetro":false,"hasHighway":false,"hasDistricts":false,"hasRegionalDistricts":false,"parentId":4564,"mainTownId":null,"lat":56.397774,"lng":38.727621,"boundedBy":{"lowerCorner":{"lat":56.362835,"lng":38.659411},"upperCorner":{"lat":56.421111,"lng":38.777127}}},{"id":4704,"fullName":"Волгоград г.","displayName":"Волгоград","name":"Волгоград","namePrepositional":"Волгограде","hasMetro":false,"hasHighway":false,"hasDistricts":true,"hasRegionalDistricts":false,"parentId":4565,"mainTownId":null,"lat":48.718079,"lng":44.504639,"boundedBy":{"lowerCorner":{"lat":48.4070531,"lng":44.1095807},"upperCorner":{"lat":48.8890717,"lng":44.6898741}}},{"id":4707,"fullName":"Волжский г.","displayName":"Волжский","name":"Волжский","namePrepositional":"Волжском","hasMetro":false,"hasHighway":false,"hasDistricts":false,"hasRegionalDistricts":false,"parentId":4565,"mainTownId":null,"lat":48.79509,"lng":44.80069,"boundedBy":{"lowerCorner":{"lat":48.750128,"lng":44.732636},"upperCorner":{"lat":48.840052,"lng":44.868744}}},{"id":174645,"fullName":"Дубовка г.","displayName":"Дубовка","name":"Дубовка","namePrepositional":"Дубовке","hasMetro":false,"hasHighway":false,"hasDistricts":false,"hasRegionalDistricts":false,"parentId":4565,"mainTownId":null,"lat":49.055369,"lng":44.826957,"boundedBy":{"lowerCorner":{"lat":49.013279,"lng":44.745533},"upperCorner":{"lat":49.086367,"lng":44.855182}}},{"id":174706,"fullName":"Жирновск г.","displayName":"Жирновск","name":"Жирновск","namePrepositional":"Жирновске","hasMetro":false,"hasHighway":false,"hasDistricts":false,"hasRegionalDistricts":false,"parentId":4565,"mainTownId":null,"lat":50.978713,"lng":44.778834,"boundedBy":{"lowerCorner":{"lat":50.951904,"lng":44.752019},"upperCorner":{"lat":51.016602,"lng":44.834305}}},{"id":174877,"fullName":"Калач-на-Дону г.","displayName":"Калач-на-Дону","name":"Калач-на-Дону","namePrepositional":"Калаче-на-Дону","hasMetro":false,"hasHighway":false,"hasDistricts":false,"hasRegionalDistricts":false,"parentId":4565,"mainTownId":null,"lat":48.681995,"lng":43.538234,"boundedBy":{"lowerCorner":{"lat":48.635171,"lng":43.481236},"upperCorner":{"lat":48.72953,"lng":43.599544}}},{"id":174900,"fullName":"Камышин г.","displayName":"Камышин","name":"Камышин","namePrepositional":"Камышине","hasMetro":false,"hasHighway":false,"hasDistricts":false,"hasRegionalDistricts":false,"parentId":4565,"mainTownId":null,"lat":50.08258,"lng":45.392681,"boundedBy":{"lowerCorner":{"lat":50.037628,"lng":45.322822},"upperCorner":{"lat":50.127531,"lng":45.46254}}},{"id":175052,"fullName":"Котельниково г.","displayName":"Котельниково","name":"Котельниково","namePrepositional":"Котельниково","hasMetro":false,"hasHighway":false,"hasDistricts":false,"hasRegionalDistricts":false,"parentId":4565,"mainTownId":null,"lat":47.631528,"lng":43.142625,"boundedBy":{"lowerCorner":{"lat":47.608442,"lng":43.104985},"upperCorner":{"lat":47.658209,"lng":43.174218}}},